[{"cityName":"Dubai, AE","stationId":"GHCND:AE000041196","lat":25.333,"lon":55.517,"tmax":42.67014115092294,"tavg":34.95170556552969},{"cityName":"Ajman, AE","stationId":"GHCND:AE000041196","lat":25.333,"lon":55.517,"tmax":42.67014115092294,"tavg":34.95170556552969},{"cityName":"Sharjah, AE","stationId":"GHCND:AE000041196","lat":25.333,"lon":55.517,"tmax":42.67014115092294,"tavg":34.95170556552969},{"cityName":"Kabul, AF","stationId":"GHCND:AFM00040948","lat":34.566,"lon":69.212,"tmax":33.30115606936414,"tavg":26.77724252491693},{"cityName":"Kandahar, AF","stationId":"GHCND:AFM00040990","lat":31.5,"lon":65.85,"tmax":40.813333333333325,"tavg":33.14982078853046},{"cityName":"Algiers, AG","stationId":"GHCND:AGM00060369","lat":36.767,"lon":3.1,"tmax":29.99072164948453,"tavg":26.83379629629631},{"cityName":"Batna, AG","stationId":"GHCND:AGM00060468","lat":35.55,"lon":6.183,"tmax":35.110999999999976,"tavg":26.90067178502878},{"cityName":"Annaba, AG","stationId":"GHCND:AGM00060360","lat":36.822,"lon":7.809,"tmax":31.426315789473684,"tavg":25.879874213836494},{"cityName":"Bejaia, AG","stationId":"GHCND:AGE00147710","lat":36.75,"lon":5.1,"tmax":31.839805825242706,"tavg":28.737735849056588},{"cityName":"Bechar, AG","stationId":"GHCND:AGM00060571","lat":31.646,"lon":-2.27,"tmax":40.43085339168492,"tavg":34.387195671776354},{"cityName":"Constantine, AG","stationId":"GHCND:AGM00060419","lat":36.276,"lon":6.62,"tmax":34.42132505175986,"tavg":26.00259856630824},{"cityName":"Laghouat, AG","stationId":"GHCND:AGE00147719","lat":33.7997,"lon":2.89,"tmax":38.52336956521738,"tavg":32.09821428571425},{"cityName":"Mostaganem, AG","stationId":"GHCND:AGM00060457","lat":35.883,"lon":0.117,"tmax":31.828990228013055,"tavg":26.075993883792055},{"cityName":"Oran, AG","stationId":"GHCND:AGM00060452","lat":35.817,"lon":-0.267,"tmax":29.97233429394812,"tavg":26.409333333333304},{"cityName":"Skikda, AG","stationId":"GHCND:AGM00060355","lat":36.933,"lon":6.95,"tmax":29.19619852164732,"tavg":26.134865900383154},{"cityName":"Tirana, AL","stationId":"GHCND:ALM00013615","lat":41.415,"lon":19.721,"tmax":32.09664948453607,"tavg":25.259766081871327},{"cityName":"Luanda, AO","stationId":"GHCND:AO000066160","lat":-8.85,"lon":13.233,"tmax":31.72641509433962,"tavg":27.741033434650447},{"cityName":"Lubango, AO","stationId":"GHCND:AO000066390","lat":-14.933,"lon":13.567,"tmax":30.925,"tavg":25.31578947368422},{"cityName":"Bahia Blanca, AR","stationId":"GHCND:AR000877500","lat":-38.733,"lon":-62.167,"tmax":31.39457964601771,"tavg":23.72459016393443},{"cityName":"Buenos Aires, AR","stationId":"GHCND:ARM00087576","lat":-34.822,"lon":-58.536,"tmax":31.57660044150109,"tavg":24.044843049327383},{"cityName":"Catamarca, AR","stationId":"GHCND:ARM00087222","lat":-28.596,"lon":-65.752,"tmax":35.509567198177685,"tavg":28.019051959890568},{"cityName":"Comodoro Rivadavia, AR","stationId":"GHCND:AR000087860","lat":-45.783,"lon":-67.5,"tmax":26.424315789473724,"tavg":19.675022461814905},{"cityName":"Formosa, AR","stationId":"GHCND:ARM00087162","lat":-26.213,"lon":-58.228,"tmax":35.21357758620688,"tavg":27.772612612612594},{"cityName":"Corrientes, AR","stationId":"GHCND:AR000087155","lat":-27.45,"lon":-59.05,"tmax":33.61808158765157,"tavg":26.834023402340208},{"cityName":"La Plata, AR","stationId":"GHCND:ARM00087593","lat":-34.972,"lon":-57.895,"tmax":30.236549707602332,"tavg":24.32425421530481},{"cityName":"La Rioja, AR","stationId":"GHCND:AR000087217","lat":-29.383,"lon":-66.817,"tmax":34.99879518072288,"tavg":27.961801801801798},{"cityName":"Neuquen, AR","stationId":"GHCND:AR000087715","lat":-38.95,"lon":-68.133,"tmax":32.1910901467505,"tavg":24.017647058823496},{"cityName":"Parana, AR","stationId":"GHCND:AR000087374","lat":-31.783,"lon":-60.483,"tmax":31.43333333333332,"tavg":25.1460885956645},{"cityName":"Posadas, AR","stationId":"GHCND:PA000086297","lat":-27.3,"lon":-55.9,"tmax":33.76338582677169,"tavg":27.075873731679803},{"cityName":"Rio Gallegos, AR","stationId":"GHCND:AR000087925","lat":-51.617,"lon":-69.283,"tmax":20.20585774058576,"tavg":13.722723174030657},{"cityName":"Resistencia, AR","stationId":"GHCND:AR000087155","lat":-27.45,"lon":-59.05,"tmax":33.61808158765155,"tavg":26.834023402340208},{"cityName":"Salta, AR","stationId":"GHCND:AR000870470","lat":-24.85,"lon":-65.483,"tmax":28.407938257993372,"tavg":21.28383287920075},{"cityName":"Rosario, AR","stationId":"GHCND:ARM00087480","lat":-32.904,"lon":-60.785,"tmax":32.188275862068984,"tavg":24.737269372693707},{"cityName":"San Luis, AR","stationId":"GHCND:ARM00087436","lat":-33.273,"lon":-66.356,"tmax":32.582532751091705,"tavg":24.87629427792915},{"cityName":"San Juan, AR","stationId":"GHCND:ARM00087311","lat":-31.571,"lon":-68.418,"tmax":36.15567010309279,"tavg":27.194770063119975},{"cityName":"Santa Rosa, AR","stationId":"GHCND:AR000087623","lat":-36.567,"lon":-64.266,"tmax":31.418776371308017,"tavg":23.904524469067404},{"cityName":"Santiago Del Estero, AR","stationId":"GHCND:AR000087129","lat":-27.767,"lon":-64.3,"tmax":34.10960264900662,"tavg":27.37255434782607},{"cityName":"Ushuaia, AR","stationId":"GHCND:ARM00087938","lat":-54.843,"lon":-68.296,"tmax":14.86741293532339,"tavg":10.0508398656215},{"cityName":"Innsbruck, AU","stationId":"GHCND:AU000011801","lat":47.2667,"lon":11.4,"tmax":25.645463049579046,"tavg":18.55654121863798},{"cityName":"Klagenfurt, AU","stationId":"GHCND:AUM00011231","lat":46.65,"lon":14.333,"tmax":26.372127417519916,"tavg":19.507706093189963},{"cityName":"Vienna, AU","stationId":"GHCND:AU000005901","lat":48.2331,"lon":16.35,"tmax":26.568850987432665,"tavg":20.86485013623978},{"cityName":"Al-Muharraq, BA","stationId":"GHCND:BA000041150","lat":26.267,"lon":50.65,"tmax":39.169059405940665,"tavg":34.7264907135875},{"cityName":"Manama, BA","stationId":"GHCND:BA000041150","lat":26.267,"lon":50.65,"tmax":39.16905940594066,"tavg":34.7264907135875},{"cityName":"Bridgetown, BB","stationId":"GHCND:BB000078954","lat":13.067,"lon":-59.483,"tmax":30.95979381443297,"tavg":27.863153070577507},{"cityName":"Francistown, BC","stationId":"GHCND:BC008948490","lat":-21.217,"lon":27.5,"tmax":32.91483180428135,"tavg":25.805626850937827},{"cityName":"Gaborone, BC","stationId":"GHCND:BC005847300","lat":-24.667,"lon":25.917,"tmax":32.92913907284768,"tavg":27.254014598540113},{"cityName":"Nassau, BF","stationId":"GHCND:BF000078073","lat":25.05,"lon":-77.467,"tmax":32.57796976241904,"tavg":28.886396396396393},{"cityName":"Barisal, BG","stationId":"GHCND:BGM00041950","lat":22.75,"lon":90.367,"tmax":33.790728476821194,"tavg":29.035692307692305},{"cityName":"Dhaka, BG","stationId":"GHCND:BGM00041923","lat":23.779,"lon":90.383,"tmax":32.71374764595105,"tavg":29.070202020202046},{"cityName":"Rajshahi, BG","stationId":"GHCND:BGM00041907","lat":24.153,"lon":89.049,"tmax":33.70975609756097,"tavg":29.24729981378028},{"cityName":"Belize, BH","stationId":"GHCND:BHM00078583","lat":17.539,"lon":-88.308,"tmax":31.915734989648033,"tavg":28.88635875402794},{"cityName":"Sarajevo, BK","stationId":"GHCND:BKM00014652","lat":44.0667,"lon":18.2667,"tmax":13.428094059405968,"tavg":11.645030425963496},{"cityName":"Cochabamba, BL","stationId":"GHCND:BL000085223","lat":-17.42,"lon":-66.18,"tmax":29.57855477855482,"tavg":19.816465116279065},{"cityName":"Oruro, BL","stationId":"GHCND:BLM00085242","lat":-17.963,"lon":-67.076,"tmax":20.908054711246187,"tavg":14.611642411642409},{"cityName":"La Paz, BL","stationId":"GHCND:BLM00085201","lat":-16.513,"lon":-68.192,"tmax":16.935328638497683,"tavg":8.924372093023257},{"cityName":"Potosi, BL","stationId":"GHCND:BLM00085293","lat":-19.543,"lon":-65.724,"tmax":18.62589073634206,"tavg":12.632695139911647},{"cityName":"Santa Cruz de La Sierra, BL","stationId":"GHCND:BLM00085245","lat":-17.812,"lon":-63.171,"tmax":31.477216916780385,"tavg":26.961372549019625},{"cityName":"Sucre, BL","stationId":"GHCND:BLM00085283","lat":-19.007,"lon":-65.289,"tmax":22.496393897364765,"tavg":17.258098223615452},{"cityName":"Tarija, BL","stationId":"GHCND:BL000085364","lat":-21.55,"lon":-64.7,"tmax":28.074217585693027,"tavg":22.10376782077392},{"cityName":"Mandalay, BM","stationId":"GHCND:BMM00048042","lat":21.983,"lon":96.1,"tmax":38.79183673469391,"tavg":31.997021276595728},{"cityName":"Trinidad, BL","stationId":"GHCND:BLM00085154","lat":-14.819,"lon":-64.918,"tmax":33.36860986547081,"tavg":27.496584440227732},{"cityName":"Myitkyina, BM","stationId":"GHCND:BMM00048008","lat":25.367,"lon":97.4,"tmax":33.26286353467561,"tavg":28.22640144665463},{"cityName":"Rangoon, BM","stationId":"GHCND:BMM00048097","lat":16.907,"lon":96.133,"tmax":37.71325051759834,"tavg":30.81220850480105},{"cityName":"Cotonou, BN","stationId":"GHCND:BN000005344","lat":6.35,"lon":2.38,"tmax":32.17152777777779,"tavg":29.089545454545448},{"cityName":"Abomey, BN","stationId":"GHCND:BNM00065338","lat":7.167,"lon":2.067,"tmax":36.22663605051667,"tavg":28.978969957081553},{"cityName":"Sagaing, BM","stationId":"GHCND:BMM00048042","lat":21.983,"lon":96.1,"tmax":38.79183673469391,"tavg":31.997021276595728},{"cityName":"Sittwe, BM","stationId":"GHCND:BMM00048062","lat":20.133,"lon":92.873,"tmax":32.56088154269975,"tavg":29.601310043668114},{"cityName":"Natitingou, BN","stationId":"GHCND:BN000005319","lat":10.32,"lon":1.48,"tmax":37.81545945945947,"tavg":30.104531722054357},{"cityName":"Parakou, BN","stationId":"GHCND:BNM00065330","lat":9.35,"lon":2.617,"tmax":37.10054112554113,"tavg":29.91503006012026},{"cityName":"Minsk, BO","stationId":"GHCND:BOM00026749","lat":54.15,"lon":27.233,"tmax":22.225806451612904,"tavg":17.076271186440675},{"cityName":"Homyel', BO","stationId":"GHCND:BOM00033041","lat":52.4,"lon":30.95,"tmax":25.029468085106387,"tavg":19.916756272401454},{"cityName":"Vitsyebsk, BO","stationId":"GHCND:BOM00026666","lat":55.167,"lon":30.217,"tmax":23.711483253588536,"tavg":18.71093189964158},{"cityName":"Honiara, BP","stationId":"GHCND:BP000091517","lat":-9.417,"lon":159.967,"tmax":31.91181102362206,"tavg":27.78621495327105},{"cityName":"Joao Pessoa, BR","stationId":"GHCND:BR039402250","lat":-7.1,"lon":-34.867,"tmax":31.07075471698113,"tavg":27.2880303030303},{"cityName":"Macapa, BR","stationId":"GHCND:BRM00082098","lat":0.051,"lon":-51.072,"tmax":33.30729166666666,"tavg":28.864360587002107},{"cityName":"Maceio, BR","stationId":"GHCND:BR038983570","lat":-9.517,"lon":-35.783,"tmax":31.568192219679627,"tavg":26.668647166361968},{"cityName":"Porto Alegre, BR","stationId":"GHCND:BRM00083967","lat":-29.946,"lon":-51.144,"tmax":32.48805970149253,"tavg":26.180808080808077},{"cityName":"Rio de Janeiro, BR","stationId":"GHCND:BR000083743","lat":-22.917,"lon":-43.167,"tmax":30.98219178082193,"tavg":26.486458333333328},{"cityName":"Santarem, BR","stationId":"GHCND:BR000254000","lat":-2.433,"lon":-54.717,"tmax":33.2860294117647,"tavg":28.93390134529144},{"cityName":"Sofia, BU","stationId":"GHCND:BUM00015614","lat":42.695,"lon":23.406,"tmax":26.879037800687286,"tavg":21.174838709677438},{"cityName":"Varna, BU","stationId":"GHCND:BUM00015552","lat":43.232,"lon":27.825,"tmax":28.092627345844576,"tavg":22.743594470046087},{"cityName":"Phnom Penh, CB","stationId":"GHCND:CBM00048991","lat":11.547,"lon":104.844,"tmax":34.8,"tavg":31.00881355932202},{"cityName":"Moundou, CD","stationId":"GHCND:CD000064706","lat":8.567,"lon":16.067,"tmax":38.9258064516129,"tavg":33.370249520153564},{"cityName":"Abeche, CD","stationId":"GHCND:CD000004756","lat":13.85,"lon":20.85,"tmax":40.769999999999996,"tavg":36.576582278481},{"cityName":"Sarh, CD","stationId":"GHCND:CD000004750","lat":9.15,"lon":18.38,"tmax":39.50000000000001,"tavg":32.61063174114021},{"cityName":"Ndjamena, CD","stationId":"GHCND:CD000004700","lat":12.13,"lon":15.03,"tmax":42.016730769230776,"tavg":34.02802395209581},{"cityName":"Colombo, CE","stationId":"GHCND:CEM00043466","lat":6.9,"lon":79.867,"tmax":31.501574803149627,"tavg":28.733112582781438},{"cityName":"Loubomo, CF","stationId":"GHCND:CF000004401","lat":-4.18,"lon":12.67,"tmax":31.96113861386142,"tavg":26.56454033771108},{"cityName":"Pointe Noire, CF","stationId":"GHCND:CF000004400","lat":-4.82,"lon":11.9,"tmax":31.25486443381179,"tavg":27.55687499999998},{"cityName":"Changchun, CH","stationId":"GHCND:CHM00054161","lat":43.9,"lon":125.217,"tmax":27.508587786259568,"tavg":23.189247311827963},{"cityName":"Chongqing, CH","stationId":"GHCND:CHM00057516","lat":29.583,"lon":106.467,"tmax":33.033650190114095,"tavg":28.406541218637983},{"cityName":"Fushun, CH","stationId":"GHCND:CHM00054342","lat":41.733,"lon":123.517,"tmax":29.0545539906103,"tavg":24.611210762331826},{"cityName":"Dalian, CH","stationId":"GHCND:CHM00054662","lat":38.9,"lon":121.633,"tmax":27.462851600387996,"tavg":24.463440860215066},{"cityName":"Fuzhou, CH","stationId":"GHCND:CHM00058847","lat":26.083,"lon":119.283,"tmax":34.51452991452996,"tavg":29.202867383512533},{"cityName":"Guiyang, CH","stationId":"GHCND:CHM00057816","lat":26.583,"lon":106.733,"tmax":27.91485436893199,"tavg":23.532347670250896},{"cityName":"Hangzhou, CH","stationId":"GHCND:CHM00058457","lat":30.233,"lon":120.167,"tmax":33.63681687440076,"tavg":28.986648745519695},{"cityName":"Hefei, CH","stationId":"GHCND:CHM00058321","lat":31.867,"lon":117.233,"tmax":32.20612991765783,"tavg":28.30277777777781},{"cityName":"Harbin, CH","stationId":"GHCND:CHM00050953","lat":45.75,"lon":126.767,"tmax":27.83580827067667,"tavg":23.18968609865471},{"cityName":"Jinan, CH","stationId":"GHCND:CHM00054823","lat":36.6,"lon":117.05,"tmax":32.014766355140154,"tavg":27.53806104129258},{"cityName":"Kashi, CH","stationId":"GHCND:CHM00051709","lat":39.467,"lon":75.983,"tmax":32.01980582524271,"tavg":25.841129032258042},{"cityName":"Kunming, CH","stationId":"GHCND:CHM00056778","lat":25.017,"lon":102.683,"tmax":24.7121568627451,"tavg":20.27861111111115},{"cityName":"Lhasa, CH","stationId":"GHCND:CHM00055591","lat":29.667,"lon":91.133,"tmax":23.780449657869017,"tavg":16.565740740740743},{"cityName":"Nanchang, CH","stationId":"GHCND:CHM00058606","lat":28.6,"lon":115.917,"tmax":33.688151658767744,"tavg":29.510044843049325},{"cityName":"Nanjing, CH","stationId":"GHCND:CHM00058238","lat":31.933,"lon":118.9,"tmax":32.11714836223509,"tavg":28.117652329749067},{"cityName":"Nanning, CH","stationId":"GHCND:CHM00059431","lat":22.633,"lon":108.217,"tmax":32.856083650190094,"tavg":28.349103942652363},{"cityName":"Qingdao, CH","stationId":"GHCND:CHM00054857","lat":36.067,"lon":120.333,"tmax":28.46897404202723,"tavg":25.699103942652332},{"cityName":"Shanghai, CH","stationId":"GHCND:CHM00058362","lat":31.4,"lon":121.467,"tmax":32.28307692307695,"tavg":28.75090439276485},{"cityName":"Qiqihar, CH","stationId":"GHCND:CHM00050745","lat":47.383,"lon":123.917,"tmax":27.917075471698137,"tavg":23.294080717488807},{"cityName":"Shenyang, CH","stationId":"GHCND:CHM00054342","lat":41.733,"lon":123.517,"tmax":29.054553990610305,"tavg":24.611210762331826},{"cityName":"Shijiazhuang, CH","stationId":"GHCND:CHM00053698","lat":38.033,"lon":114.417,"tmax":32.277607913669065,"tavg":27.376591928251127},{"cityName":"Taiyuan, CH","stationId":"GHCND:CHM00053772","lat":37.783,"lon":112.55,"tmax":29.947519083969443,"tavg":23.996684587813622},{"cityName":"Tianjin, CH","stationId":"GHCND:CHM00054527","lat":39.1,"lon":117.167,"tmax":31.375673249551205,"tavg":26.904215246636713},{"cityName":"Wuhan, CH","stationId":"GHCND:CHM00057494","lat":30.6,"lon":114.05,"tmax":32.90852490421456,"tavg":29.07195340501791},{"cityName":"Urumqi, CH","stationId":"GHCND:CHM00051463","lat":43.8,"lon":87.65,"tmax":29.92462121212119,"tavg":23.96852017937218},{"cityName":"Xi'an, CH","stationId":"GHCND:CHM00057131","lat":34.433,"lon":108.967,"tmax":32.36692913385826,"tavg":27.287055016181245},{"cityName":"Xining, CH","stationId":"GHCND:CHM00052866","lat":36.617,"lon":101.767,"tmax":24.831425891181972,"tavg":17.314798206277995},{"cityName":"Antofagasta, CI","stationId":"GHCND:CI000085442","lat":-23.433,"lon":-70.45,"tmax":23.724937655860387,"tavg":20.220807174887863},{"cityName":"Temuco, CI","stationId":"GHCND:CI000085743","lat":-38.75,"lon":-72.633,"tmax":25.497190082644593,"tavg":16.441527001862223},{"cityName":"Maroua, CM","stationId":"GHCND:CMM00064851","lat":10.451,"lon":14.257,"tmax":40.10389610389611,"tavg":33.340264026402636},{"cityName":"Arauca, CO","stationId":"GHCND:COM00080099","lat":7.069,"lon":-70.737,"tmax":34.95272727272727,"tavg":29.507462686567177},{"cityName":"Armenia, CO","stationId":"GHCND:COM00080211","lat":4.453,"lon":-75.766,"tmax":29.929032258064517,"tavg":23.6295532646048},{"cityName":"Bogota, CO","stationId":"GHCND:CO000080222","lat":4.701,"lon":-74.15,"tmax":19.413825983313462,"tavg":13.878456014362657},{"cityName":"Barranquilla, CO","stationId":"GHCND:COM00080028","lat":10.89,"lon":-74.781,"tmax":33.878177458033576,"tavg":28.292803738317733},{"cityName":"Cali, CO","stationId":"GHCND:CO000080259","lat":3.55,"lon":-76.383,"tmax":29.55964912280705,"tavg":24.106474820143905},{"cityName":"Bucaramanga, CO","stationId":"GHCND:COM00080094","lat":7.127,"lon":-73.185,"tmax":25.879345603271993,"tavg":22.284773218142522},{"cityName":"Cartagena, CO","stationId":"GHCND:COM00080022","lat":10.442,"lon":-75.513,"tmax":32.40365853658541,"tavg":28.57511825922418},{"cityName":"Cucuta, CO","stationId":"GHCND:COM00080097","lat":7.928,"lon":-72.512,"tmax":34.92633451957294,"tavg":29.655460992907777},{"cityName":"Ibague, CO","stationId":"GHCND:COM00080214","lat":4.422,"lon":-75.133,"tmax":32.2862385321101,"tavg":26.531},{"cityName":"Medellin, CO","stationId":"GHCND:COM00080110","lat":6.22,"lon":-75.591,"tmax":28.73411764705883,"tavg":23.617710196779942},{"cityName":"Monteria, CO","stationId":"GHCND:COM00080063","lat":8.824,"lon":-75.826,"tmax":34.91829268292682,"tavg":29.615525114155258},{"cityName":"Neiva, CO","stationId":"GHCND:COM00080315","lat":2.95,"lon":-75.294,"tmax":35.319533527696784,"tavg":29.67652582159628},{"cityName":"Pasto, CO","stationId":"GHCND:CO000080342","lat":1.417,"lon":-77.267,"tmax":24.21831775700935,"tavg":21.44711779448623},{"cityName":"Pereira, CO","stationId":"GHCND:COM00080210","lat":4.813,"lon":-75.74,"tmax":27.786292834890965,"tavg":22.38315688161694},{"cityName":"Riohacha, CO","stationId":"GHCND:COM00080035","lat":11.526,"lon":-72.926,"tmax":36.055681818181824,"tavg":31.166798418972324},{"cityName":"Quibdo, CO","stationId":"GHCND:COM00080144","lat":5.691,"lon":-76.641,"tmax":32.15925925925926,"tavg":27.47307692307691},{"cityName":"San Andres, CO","stationId":"GHCND:CO000080001","lat":12.583,"lon":-81.717,"tmax":29.449248120300737,"tavg":28.3112052730697},{"cityName":"Santa Marta, CO","stationId":"GHCND:COM00080009","lat":11.12,"lon":-74.231,"tmax":33.65722543352599,"tavg":29.89575242718453},{"cityName":"Villavicencio, CO","stationId":"GHCND:COM00080234","lat":4.168,"lon":-73.614,"tmax":32.22580645161291,"tavg":28.10242718446602},{"cityName":"Valledupar, CO","stationId":"GHCND:COM00080036","lat":10.435,"lon":-73.25,"tmax":36.829914529914525,"tavg":30.827553444180523},{"cityName":"Puerto Limon, CS","stationId":"GHCND:CS000081003","lat":9.967,"lon":-83.017,"tmax":30.522094240837678,"tavg":27.904032258064547},{"cityName":"Bangui, CT","stationId":"GHCND:CTM00064650","lat":4.398,"lon":18.519,"tmax":34.69375000000004,"tavg":27.622135706340373},{"cityName":"Berberati, CT","stationId":"GHCND:CT000004600","lat":4.22,"lon":15.78,"tmax":32.96247422680416,"tavg":25.888977635782737},{"cityName":"Camaguey, CU","stationId":"GHCND:CUM00078355","lat":21.4,"lon":-77.85,"tmax":32.75622710622707,"tavg":26.97050847457623},{"cityName":"Havana, CU","stationId":"GHCND:CUM00078325","lat":23.167,"lon":-82.35,"tmax":32.38553370786514,"tavg":27.730911492734496},{"cityName":"Praia, CV","stationId":"GHCND:CVM00008589","lat":14.917,"lon":-23.6,"tmax":30.797424892703884,"tavg":27.218627450980414},{"cityName":"Santo Domingo, DR","stationId":"GHCND:DRM00078486","lat":18.433,"lon":-69.883,"tmax":32.48503401360544,"tavg":27.454719101123626},{"cityName":"Alexandria, EG","stationId":"GHCND:EGM00062318","lat":31.184,"lon":29.949,"tmax":30.772009029345437,"tavg":27.305490549054884},{"cityName":"Aswan, EG","stationId":"GHCND:EG000062414","lat":23.9667,"lon":32.7831,"tmax":41.48436482084691,"tavg":34.76344383057083},{"cityName":"Cork, EI","stationId":"GHCND:EIM00003955","lat":51.841,"lon":-8.491,"tmax":18.67833163784335,"tavg":14.883512544802855},{"cityName":"Marsa Matruh, EG","stationId":"GHCND:EG000062306","lat":31.3331,"lon":27.2167,"tmax":30.193042575285574,"tavg":26.57923844061648},{"cityName":"Dublin, EI","stationId":"GHCND:EI000003969","lat":53.3639,"lon":-6.3192,"tmax":20.06386093321134,"tavg":15.237634408602144},{"cityName":"San Salvador, ES","stationId":"GHCND:ES003800510","lat":13.7,"lon":-89.117,"tmax":32.94671717171719,"tavg":26.362022194821257},{"cityName":"Addis Ababa, ET","stationId":"GHCND:ET000063450","lat":9.033,"lon":38.75,"tmax":25.077436823104705,"tavg":18.53628428927681},{"cityName":"Gonder, ET","stationId":"GHCND:ET000063331","lat":12.55,"lon":37.417,"tmax":29.549166666666675,"tavg":23.771893491124274},{"cityName":"Dese, ET","stationId":"GHCND:ET000063333","lat":11.117,"lon":39.733,"tmax":30.17543520309478,"tavg":24.067030965391627},{"cityName":"Jima, ET","stationId":"GHCND:ET000063402","lat":7.667,"lon":36.833,"tmax":29.300264550264565,"tavg":20.828177966101688},{"cityName":"Brno, EZ","stationId":"GHCND:EZM00011723","lat":49.151,"lon":16.694,"tmax":25.502754237288126,"tavg":19.74543778801844},{"cityName":"Prague, EZ","stationId":"GHCND:EZM00011518","lat":50.101,"lon":14.26,"tmax":23.91227701993703,"tavg":18.15394265232975},{"cityName":"Ostrava, EZ","stationId":"GHCND:EZM00011782","lat":49.696,"lon":18.111,"tmax":24.82571721311475,"tavg":18.864426523297467},{"cityName":"Cayenne, FG","stationId":"GHCND:FG000081405","lat":4.833,"lon":-52.367,"tmax":32.25557830092116,"tavg":27.01224289911848},{"cityName":"Usti Nad Labem, EZ","stationId":"GHCND:GMM00010582","lat":50.733,"lon":13.75,"tmax":21.747058823529404,"tavg":16.8421052631579},{"cityName":"Turku, FI","stationId":"GHCND:FIE00142511","lat":60.5153,"lon":22.2775,"tmax":22.329240374609757,"tavg":17.37315978456016},{"cityName":"Ajaccio, FR","stationId":"GHCND:FRM00007761","lat":41.924,"lon":8.803,"tmax":28.940315315315306,"tavg":23.557885304659465},{"cityName":"Suva, FJ","stationId":"GHCND:FJM00091683","lat":-18.043,"lon":178.559,"tmax":31.31164021164021,"tavg":26.627684729064},{"cityName":"Brest, FR","stationId":"GHCND:FRM00007110","lat":48.448,"lon":-4.419,"tmax":20.887007454739084,"tavg":16.5991039426523},{"cityName":"Caen, FR","stationId":"GHCND:FRM00007027","lat":49.173,"lon":-0.45,"tmax":23.039850427350434,"tavg":17.880286738351252},{"cityName":"Clermont-Ferrand, FR","stationId":"GHCND:FRM00007460","lat":45.787,"lon":3.169,"tmax":26.997894736842124,"tavg":20.411181244364293},{"cityName":"Dijon, FR","stationId":"GHCND:FRE00104072","lat":47.2678,"lon":5.0881,"tmax":26.031451612903236,"tavg":20.276254480286727},{"cityName":"Limoges, FR","stationId":"GHCND:FRM00007434","lat":45.863,"lon":1.179,"tmax":24.575565123789016,"tavg":19.187186379928324},{"cityName":"Lille, FR","stationId":"GHCND:FRM00007015","lat":50.562,"lon":3.089,"tmax":23.657109826589625,"tavg":18.362982929020667},{"cityName":"Lyon, FR","stationId":"GHCND:FRM00007481","lat":45.726,"lon":5.091,"tmax":27.754004576659042,"tavg":21.40299184043517},{"cityName":"Marseille, FR","stationId":"GHCND:FRM00007661","lat":43.083,"lon":5.933,"tmax":27.86905737704917,"tavg":23.562571976967387},{"cityName":"Montpellier, FR","stationId":"GHCND:FRM00007643","lat":43.576,"lon":3.963,"tmax":29.54525025536262,"tavg":24.174999999999994},{"cityName":"Nancy, FR","stationId":"GHCND:FRM00007180","lat":48.692,"lon":6.23,"tmax":25.633891213389152,"tavg":19.428417266187036},{"cityName":"Nantes, FR","stationId":"GHCND:FRM00007222","lat":47.15,"lon":-1.6089,"tmax":24.78091397849461,"tavg":19.51370967741935},{"cityName":"Paris, FR","stationId":"GHCND:FRM00007149","lat":48.7167,"lon":2.3842,"tmax":25.152419354838752,"tavg":19.807823741007248},{"cityName":"Reims, FR","stationId":"GHCND:FRM00007072","lat":49.217,"lon":4.15,"tmax":25.550505050505045,"tavg":19.346774193548388}]