[
    {
        "cityName": "Abeche, CD",
        "stationId": "GHCND:CD000004756",
        "lat": 13.85,
        "lon": 20.85,
        "tMin": 16.46563706563705,
        "tAvgCold": 27.49413680781758,
        "tMax": 40.769999999999996,
        "tAvgHot": 36.576582278481
    },
    {
        "cityName": "Abomey, BN",
        "stationId": "GHCND:BNM00065338",
        "lat": 7.167,
        "lon": 2.067,
        "tMin": 22.12768595041322,
        "tAvgCold": 24.95830164765526,
        "tMax": 36.2180132450331,
        "tAvgHot": 28.980503144654108
    },
    {
        "cityName": "Abu Dhabi, AE",
        "stationId": "GHCND:AEM00041217",
        "lat": 24.433,
        "lon": 54.651,
        "tMin": 12.908005822416332,
        "tAvgCold": 18.723092998955053,
        "tMax": 43.16992574257427,
        "tAvgHot": 35.55785639958377
    },
    {
        "cityName": "Accra, GH",
        "stationId": "GHCND:GHM00065472",
        "lat": 5.605,
        "lon": -0.167,
        "tMin": 22.755269320843084,
        "tAvgCold": 25.199740932642506,
        "tMax": 33.23753665689151,
        "tAvgHot": 28.914606741573067
    },
    {
        "cityName": "Adelaide, AS",
        "stationId": "GHCND:ASN00023034",
        "lat": -34.9524,
        "lon": 138.5204,
        "tMin": 7.218437499999996,
        "tAvgCold": null,
        "tMax": 15.036004162330912,
        "tAvgHot": null
    },
    {
        "cityName": "Ajaccio, FR",
        "stationId": "GHCND:FRE00106209",
        "lat": 41.9181,
        "lon": 8.7928,
        "tMin": 4.465764828303848,
        "tAvgCold": 8.664375000000007,
        "tMax": 28.959001040582727,
        "tAvgHot": 23.739438085327766
    },
    {
        "cityName": "Ajman, AE",
        "stationId": "GHCND:AEM00041194",
        "lat": 25.255,
        "lon": 55.364,
        "tMin": 14.599847792998487,
        "tAvgCold": 19.40397074190178,
        "tMax": 41.598286413708664,
        "tAvgHot": 35.48876170655568
    },
    {
        "cityName": "Al-Muharraq, BA",
        "stationId": "GHCND:BA000041150",
        "lat": 26.267,
        "lon": 50.65,
        "tMin": 13.970270270270264,
        "tAvgCold": 17.083210137275607,
        "tMax": 39.30535248041782,
        "tAvgHot": 34.81675338189387
    },
    {
        "cityName": "Alborg, DA",
        "stationId": "GHCND:DAM00006030",
        "lat": 57.093,
        "lon": 9.849,
        "tMin": -2.152323580034426,
        "tAvgCold": 0.8622523461939527,
        "tMax": 21.520097442143737,
        "tAvgHot": 16.848595213319438
    },
    {
        "cityName": "Alexandria, EG",
        "stationId": "GHCND:EGM00062318",
        "lat": 31.184,
        "lon": 29.949,
        "tMin": 8.957996485061518,
        "tAvgCold": 13.963645833333333,
        "tMax": 30.847222222222292,
        "tAvgHot": 27.385729166666653
    },
    {
        "cityName": "Algiers, AG",
        "stationId": "GHCND:AG000060390",
        "lat": 36.7167,
        "lon": 3.25,
        "tMin": 5.410968660968661,
        "tAvgCold": 10.759414225941425,
        "tMax": 32.7996415770609,
        "tAvgHot": 26.418456725755984
    },
    {
        "cityName": "Annaba, AG",
        "stationId": "GHCND:AGM00060360",
        "lat": 36.822,
        "lon": 7.809,
        "tMin": 6.456594323873125,
        "tAvgCold": 11.204602510460251,
        "tMax": 31.633251231527108,
        "tAvgHot": 26.011795407098152
    },
    {
        "cityName": "Antofagasta, CI",
        "stationId": "GHCND:CI000085442",
        "lat": -23.433,
        "lon": -70.45,
        "tMin": 11.412552301255218,
        "tAvgCold": 13.823333333333323,
        "tMax": 23.642037302726,
        "tAvgHot": 20.10729166666666
    },
    {
        "cityName": "Arauca, CO",
        "stationId": "GHCND:VEM00080448",
        "lat": 7.211,
        "lon": -70.756,
        "tMin": 22.499593495934977,
        "tAvgCold": 26.049753694581288,
        "tMax": 35.130630630630634,
        "tAvgHot": 29.065742251223526
    },
    {
        "cityName": "Armenia, CO",
        "stationId": "GHCND:COM00080211",
        "lat": 4.453,
        "lon": -75.766,
        "tMin": 17.419473684210534,
        "tAvgCold": 22.354642857142853,
        "tMax": 29.92903225806452,
        "tAvgHot": 23.51481481481481
    },
    {
        "cityName": "Aswan, EG",
        "stationId": "GHCND:EG000062414",
        "lat": 23.9667,
        "lon": 32.7831,
        "tMin": 9.832909604519772,
        "tAvgCold": 16.40499999999999,
        "tMax": 41.57666248431622,
        "tAvgHot": 34.879893048128295
    },
    {
        "cityName": "Athens, GR",
        "stationId": "GHCND:GRE00105246",
        "lat": 38.3167,
        "lon": 23.5331,
        "tMin": 3.3090265486725676,
        "tAvgCold": null,
        "tMax": 11.38951612903225,
        "tAvgHot": null
    },
    {
        "cityName": "Bahia Blanca, AR",
        "stationId": "GHCND:AR000877500",
        "lat": -38.733,
        "lon": -62.167,
        "tMin": 2.108571428571428,
        "tAvgCold": 7.888389121338912,
        "tMax": 31.403096774193546,
        "tAvgHot": 23.570413573700932
    },
    {
        "cityName": "Bandar Seri Begawan, BX",
        "stationId": "GHCND:BXM00096315",
        "lat": 4.944,
        "lon": 114.928,
        "tMin": 23.62912801484231,
        "tAvgCold": 26.880402542372874,
        "tMax": 32.824477611940324,
        "tAvgHot": 28.00481798715204
    },
    {
        "cityName": "Bangui, CT",
        "stationId": "GHCND:CTM00064650",
        "lat": 4.398,
        "lon": 18.519,
        "tMin": 21.048931116389564,
        "tAvgCold": 25.000524246395813,
        "tMax": 34.627801724137946,
        "tAvgHot": 27.609475032010224
    },
    {
        "cityName": "Barisal, BG",
        "stationId": "GHCND:BGM00041950",
        "lat": 22.75,
        "lon": 90.367,
        "tMin": 12.502325581395349,
        "tAvgCold": 17.783391003460203,
        "tMax": 33.80675675675677,
        "tAvgHot": 29.014649681528663
    },
    {
        "cityName": "Barranquilla, CO",
        "stationId": "GHCND:COM00080028",
        "lat": 10.89,
        "lon": -74.781,
        "tMin": 23.60073937153418,
        "tAvgCold": 26.93326203208556,
        "tMax": 33.99628647214854,
        "tAvgHot": 28.31596091205207
    },
    {
        "cityName": "Bat'umi, GG",
        "stationId": "GHCND:GG000037484",
        "lat": 41.633,
        "lon": 41.6,
        "tMin": 3.198006644518272,
        "tAvgCold": 6.897759999999998,
        "tMax": 26.849806949806975,
        "tAvgHot": 23.81115485564307
    },
    {
        "cityName": "Batna, AG",
        "stationId": "GHCND:AGM00060468",
        "lat": 35.55,
        "lon": 6.183,
        "tMin": -0.01835334476843903,
        "tAvgCold": 5.699306358381506,
        "tMax": 35.44954128440368,
        "tAvgHot": 26.977191011235938
    },
    {
        "cityName": "Bechar, AG",
        "stationId": "GHCND:AGM00060571",
        "lat": 31.646,
        "lon": -2.27,
        "tMin": 3.2485530546623784,
        "tAvgCold": 9.589596602972385,
        "tMax": 40.482120051085595,
        "tAvgHot": 34.49342379958246
    },
    {
        "cityName": "Beijing, CH",
        "stationId": "GHCND:CHM00054511",
        "lat": 39.933,
        "lon": 116.283,
        "tMin": -7.325056689342395,
        "tAvgCold": -2.9792924037460984,
        "tMax": 31.399434389140264,
        "tAvgHot": 26.806971904266458
    },
    {
        "cityName": "Bejaia, AG",
        "stationId": "GHCND:AGM00060402",
        "lat": 36.712,
        "lon": 5.07,
        "tMin": 7.1557723577235794,
        "tAvgCold": 11.214696132596677,
        "tMax": 30.64840989399292,
        "tAvgHot": 25.866736621196242
    },
    {
        "cityName": "Belem, BR",
        "stationId": "GHCND:BRM00082193",
        "lat": -1.379,
        "lon": -48.476,
        "tMin": 23.757142857142842,
        "tAvgCold": 26.050753186558506,
        "tMax": 32.45436046511632,
        "tAvgHot": 27.387648970747613
    },
    {
        "cityName": "Belize, BH",
        "stationId": "GHCND:BHM00078583",
        "lat": 17.539,
        "lon": -88.308,
        "tMin": 19.921291866028703,
        "tAvgCold": 24.48874092009686,
        "tMax": 31.952985074626845,
        "tAvgHot": 28.978544542032637
    },
    {
        "cityName": "Belo Horizonte, BR",
        "stationId": "GHCND:BRM00083566",
        "lat": -19.833,
        "lon": -43.917,
        "tMin": 12.75999999999999,
        "tAvgCold": 17.9502824858757,
        "tMax": 28.540880503144667,
        "tAvgHot": 22.768789808917184
    },
    {
        "cityName": "Berberati, CT",
        "stationId": "GHCND:CT000004600",
        "lat": 4.22,
        "lon": 15.78,
        "tMin": 17.18672768878719,
        "tAvgCold": 23.41895551257254,
        "tMax": 32.86474820143888,
        "tAvgHot": 25.822580645161295
    },
    {
        "cityName": "Berlin, GM",
        "stationId": "GHCND:GME00128146",
        "lat": 52.4303,
        "lon": 13.2342,
        "tMin": -1.8777126099706738,
        "tAvgCold": null,
        "tMax": 3.0497067448680295,
        "tAvgHot": null
    },
    {
        "cityName": "Bogota, CO",
        "stationId": "GHCND:CO000080222",
        "lat": 4.701,
        "lon": -74.15,
        "tMin": 6.112176165803115,
        "tAvgCold": 12.963375796178363,
        "tMax": 19.47105263157894,
        "tAvgHot": 13.886339937434824
    },
    {
        "cityName": "Brazzaville, CF",
        "stationId": "GHCND:CF000004450",
        "lat": -4.25,
        "lon": 15.25,
        "tMin": 19.055032119914344,
        "tAvgCold": 23.040589569161003,
        "tMax": 32.470709382151085,
        "tAvgHot": 26.61380510440832
    },
    {
        "cityName": "Bremerhaven, GM",
        "stationId": "GHCND:GME00126034",
        "lat": 53.625,
        "lon": 8.8331,
        "tMin": -1.533333333333334,
        "tAvgCold": null,
        "tMax": 3.2836021505376363,
        "tAvgHot": null
    },
    {
        "cityName": "Brest, BO",
        "stationId": "GHCND:BOM00033008",
        "lat": 52.1167,
        "lon": 23.6831,
        "tMin": -4.799208443271764,
        "tAvgCold": -2.685535900104057,
        "tMax": 25.260500544069657,
        "tAvgHot": 19.606763787721118
    },
    {
        "cityName": "Brest, FR",
        "stationId": "GHCND:FRE00104484",
        "lat": 48.4442,
        "lon": -4.4117,
        "tMin": 4.148685714285714,
        "tAvgCold": 6.759101382488484,
        "tMax": 20.710405827263283,
        "tAvgHot": 16.591259105098825
    },
    {
        "cityName": "Bridgetown, BB",
        "stationId": "GHCND:BB000078954",
        "lat": 13.067,
        "lon": -59.483,
        "tMin": 22.546549560853215,
        "tAvgCold": 25.830626450116032,
        "tMax": 31.099048913043454,
        "tAvgHot": 27.960341151385975
    },
    {
        "cityName": "Brikama, GA",
        "stationId": "GHCND:GAM00061701",
        "lat": 13.338,
        "lon": -16.652,
        "tMin": 16.892075471698117,
        "tAvgCold": 23.724929971988757,
        "tMax": 33.12952127659574,
        "tAvgHot": 27.612953367875633
    },
    {
        "cityName": "Brno, EZ",
        "stationId": "GHCND:EZM00011723",
        "lat": 49.151,
        "lon": 16.694,
        "tMin": -4.138475836431228,
        "tAvgCold": -1.3276939655172437,
        "tMax": 25.73466833541927,
        "tAvgHot": 19.94139784946237
    },
    {
        "cityName": "Brussels, BE",
        "stationId": "GHCND:BE000006447",
        "lat": 50.8,
        "lon": 4.35,
        "tMin": 0.8162666666666661,
        "tAvgCold": 3.4368644067796588,
        "tMax": 23.0616150442478,
        "tAvgHot": 18.366631016042756
    },
    {
        "cityName": "Bucaramanga, CO",
        "stationId": "GHCND:COM00080094",
        "lat": 7.127,
        "lon": -73.185,
        "tMin": 18.372545090180342,
        "tAvgCold": 21.52408312958433,
        "tMax": 25.991489361702122,
        "tAvgHot": 22.27109905020353
    },
    {
        "cityName": "Buenos Aires, AR",
        "stationId": "GHCND:ARM00087582",
        "lat": -34.559,
        "lon": -58.416,
        "tMin": 7.711388455538223,
        "tAvgCold": 11.294877267876203,
        "tMax": 29.334146341463434,
        "tAvgHot": 24.533552631578953
    },
    {
        "cityName": "Caen, FR",
        "stationId": "GHCND:FRM00007027",
        "lat": 49.173,
        "lon": -0.45,
        "tMin": 2.0504159733777025,
        "tAvgCold": 5.298749999999997,
        "tMax": 23.089485981308414,
        "tAvgHot": 17.84547346514049
    },
    {
        "cityName": "Cairns, AS",
        "stationId": "GHCND:ASN00031011",
        "lat": -16.8736,
        "lon": 145.7458,
        "tMin": 17.205202913631645,
        "tAvgCold": null,
        "tMax": 26.038501560874067,
        "tAvgHot": null
    },
    {
        "cityName": "Cali, CO",
        "stationId": "GHCND:CO000080259",
        "lat": 3.55,
        "lon": -76.383,
        "tMin": 18.740680713128,
        "tAvgCold": 23.157826086956533,
        "tMax": 29.301710730948667,
        "tAvgHot": 24.131870428422147
    },
    {
        "cityName": "Camaguey, CU",
        "stationId": "GHCND:CUM00078355",
        "lat": 21.4,
        "lon": -77.85,
        "tMin": 17.9475982532751,
        "tAvgCold": 22.434879032258074,
        "tMax": 32.76612576064903,
        "tAvgHot": 26.99366852886403
    },
    {
        "cityName": "Cartagena, CO",
        "stationId": "GHCND:COM00080022",
        "lat": 10.442,
        "lon": -75.513,
        "tMin": 23.8586274509804,
        "tAvgCold": 26.917326203208532,
        "tMax": 32.43911917098449,
        "tAvgHot": 28.59594298245612
    },
    {
        "cityName": "Catamarca, AR",
        "stationId": "GHCND:ARM00087222",
        "lat": -28.596,
        "lon": -65.752,
        "tMin": 3.752664974619295,
        "tAvgCold": 12.81263269639064,
        "tMax": 35.56016042780746,
        "tAvgHot": 28.190445859872572
    },
    {
        "cityName": "Cayenne, FG",
        "stationId": "GHCND:FG000081405",
        "lat": 4.833,
        "lon": -52.367,
        "tMin": 22.942985842985845,
        "tAvgCold": 25.6164785553048,
        "tMax": 32.38649635036491,
        "tAvgHot": 27.003657142857122
    },
    {
        "cityName": "Changchun, CH",
        "stationId": "GHCND:CHM00054161",
        "lat": 43.9,
        "lon": 125.217,
        "tMin": -19.06528089887639,
        "tAvgCold": -14.817065556711752,
        "tMax": 27.5070548712206,
        "tAvgHot": 23.245681581685766
    },
    {
        "cityName": "Chengdu, CH",
        "stationId": "GHCND:CHM00056294",
        "lat": 30.667,
        "lon": 104.017,
        "tMin": 3.3023769100169753,
        "tAvgCold": 6.240998959417275,
        "tMax": 29.876740237691,
        "tAvgHot": 25.97429760665971
    },
    {
        "cityName": "Chittagong, BG",
        "stationId": "GHCND:BGM00041978",
        "lat": 22.25,
        "lon": 91.813,
        "tMin": 14.350310559006214,
        "tAvgCold": 20.62757763975155,
        "tMax": 32.581640624999984,
        "tAvgHot": 29.052341597796158
    },
    {
        "cityName": "Clermont-Ferrand, FR",
        "stationId": "GHCND:FRE00104092",
        "lat": 45.7867,
        "lon": 3.1492,
        "tMin": 0.0485952133194592,
        "tAvgCold": 3.6747916666666685,
        "tMax": 26.440790842872026,
        "tAvgHot": 20.465199161425563
    },
    {
        "cityName": "Cochabamba, BL",
        "stationId": "GHCND:BL000085223",
        "lat": -17.42,
        "lon": -66.18,
        "tMin": 2.383600713012477,
        "tAvgCold": 13.780731969860065,
        "tMax": 29.65730769230773,
        "tAvgHot": 19.8485436893204
    },
    {
        "cityName": "Colombo, CE",
        "stationId": "GHCND:CEM00043466",
        "lat": 6.9,
        "lon": 79.867,
        "tMin": 23.596590909090924,
        "tAvgCold": 26.671481481481482,
        "tMax": 31.488983050847484,
        "tAvgHot": 28.77811320754715
    },
    {
        "cityName": "Comodoro Rivadavia, AR",
        "stationId": "GHCND:AR000087860",
        "lat": -45.783,
        "lon": -67.5,
        "tMin": 2.556648648648651,
        "tAvgCold": 6.951925078043712,
        "tMax": 26.37836477987424,
        "tAvgHot": 19.577974947807945
    },
    {
        "cityName": "Concepcion, CI",
        "stationId": "GHCND:CIM00085682",
        "lat": -36.773,
        "lon": -73.063,
        "tMin": 5.070197740112997,
        "tAvgCold": 9.167637877211252,
        "tMax": 23.56745562130178,
        "tAvgHot": 16.902716823406458
    },
    {
        "cityName": "Constantine, AG",
        "stationId": "GHCND:AGM00060419",
        "lat": 36.276,
        "lon": 6.62,
        "tMin": 2.1383392226148414,
        "tAvgCold": 6.764091858037581,
        "tMax": 34.473276904474055,
        "tAvgHot": 26.080437044745043
    },
    {
        "cityName": "Copenhagen, DA",
        "stationId": "GHCND:SWE00137636",
        "lat": 56.03,
        "lon": 12.77,
        "tMin": -1.7961290322580632,
        "tAvgCold": null,
        "tMax": 2.545483870967741,
        "tAvgHot": null
    },
    {
        "cityName": "Coquimbo, CI",
        "stationId": "GHCND:CI000085488",
        "lat": -29.917,
        "lon": -71.2,
        "tMin": 7.353808353808354,
        "tAvgCold": 11.063417190775686,
        "tMax": 21.705300353356904,
        "tAvgHot": 17.472235023041506
    },
    {
        "cityName": "Cordoba, AR",
        "stationId": "GHCND:AR000087344",
        "lat": -31.317,
        "lon": -64.217,
        "tMin": 3.8670329670329697,
        "tAvgCold": 10.531321540062434,
        "tMax": 29.906821282401086,
        "tAvgHot": 23.563020833333336
    },
    {
        "cityName": "Cork, EI",
        "stationId": "GHCND:EIM00003955",
        "lat": 51.841,
        "lon": -8.491,
        "tMin": 2.8752941176470577,
        "tAvgCold": 5.722174381054891,
        "tMax": 18.574821852731617,
        "tAvgHot": 14.833610822060342
    },
    {
        "cityName": "Corrientes, AR",
        "stationId": "GHCND:ARM00087166",
        "lat": -27.446,
        "lon": -58.762,
        "tMin": 9.426897689768982,
        "tAvgCold": 15.590010741138554,
        "tMax": 34.39909090909089,
        "tAvgHot": 27.359299781181605
    },
    {
        "cityName": "Cotonou, BN",
        "stationId": "GHCND:BN000005344",
        "lat": 6.35,
        "lon": 2.38,
        "tMin": 23.901992031872492,
        "tAvgCold": 25.390746934225184,
        "tMax": 32.246857923497295,
        "tAvgHot": 29.103911205073956
    },
    {
        "cityName": "Cucuta, CO",
        "stationId": "GHCND:VEM00080447",
        "lat": 7.841,
        "lon": -72.44,
        "tMin": 20.88410958904108,
        "tAvgCold": 26.030000000000022,
        "tMax": 34.22346041055717,
        "tAvgHot": 28.611137440758277
    },
    {
        "cityName": "Curitiba, BR",
        "stationId": "GHCND:BR002549075",
        "lat": -25.417,
        "lon": -49.267,
        "tMin": 9.997435897435901,
        "tAvgCold": 15.068468468468467,
        "tMax": 27.43142857142857,
        "tAvgHot": 22.515136476426807
    },
    {
        "cityName": "Dalian, CH",
        "stationId": "GHCND:CHM00054662",
        "lat": 38.9,
        "lon": 121.633,
        "tMin": -6.400221729490024,
        "tAvgCold": -3.540582726326742,
        "tMax": 27.524429223744306,
        "tAvgHot": 24.542559833506775
    },
    {
        "cityName": "Darwin, AS",
        "stationId": "GHCND:ASN00014015",
        "lat": -12.4239,
        "lon": 130.8925,
        "tMin": 19.400312499999984,
        "tAvgCold": null,
        "tMax": 30.860860215053762,
        "tAvgHot": null
    },
    {
        "cityName": "Dese, ET",
        "stationId": "GHCND:ET000063333",
        "lat": 11.117,
        "lon": 39.733,
        "tMin": 9.022222222222226,
        "tAvgCold": 17.977730192719502,
        "tMax": 30.238147138964603,
        "tAvgHot": 24.20207039337476
    },
    {
        "cityName": "Dhaka, BG",
        "stationId": "GHCND:BGM00041923",
        "lat": 23.779,
        "lon": 90.383,
        "tMin": 13.335323383084582,
        "tAvgCold": 18.82631578947367,
        "tMax": 32.79897540983608,
        "tAvgHot": 29.14682835820898
    },
    {
        "cityName": "Dijon, FR",
        "stationId": "GHCND:FRM00007280",
        "lat": 47.269,
        "lon": 5.09,
        "tMin": -1.1297989031078612,
        "tAvgCold": 2.0542708333333315,
        "tMax": 26.457243816254387,
        "tAvgHot": 20.306763787721103
    },
    {
        "cityName": "Dortmund, GM",
        "stationId": "GHCND:GME00131518",
        "lat": 51.7681,
        "lon": 7.5203,
        "tMin": -0.04064516129032244,
        "tAvgCold": null,
        "tMax": 5.336363636363637,
        "tAvgHot": null
    },
    {
        "cityName": "Douala, CM",
        "stationId": "GHCND:CM000004910",
        "lat": 4.02,
        "lon": 9.72,
        "tMin": 23.035657370517928,
        "tAvgCold": 24.952677459526782,
        "tMax": 33.30607734806633,
        "tAvgHot": 28.020176544766684
    },
    {
        "cityName": "Dresden, GM",
        "stationId": "GHCND:GM000003244",
        "lat": 51.1167,
        "lon": 13.6831,
        "tMin": -2.2655913978494615,
        "tAvgCold": null,
        "tMax": 2.922580645161289,
        "tAvgHot": null
    },
    {
        "cityName": "Dubai, AE",
        "stationId": "GHCND:AEM00041194",
        "lat": 25.255,
        "lon": 55.364,
        "tMin": 14.599847792998489,
        "tAvgCold": 19.40397074190178,
        "tMax": 41.598286413708664,
        "tAvgHot": 35.48876170655568
    },
    {
        "cityName": "Dublin, EI",
        "stationId": "GHCND:EIM00003967",
        "lat": 53.302,
        "lon": -6.451,
        "tMin": 1.863981042654028,
        "tAvgCold": 5.36713021491783,
        "tMax": 19.71393728222998,
        "tAvgHot": 15.354393770856515
    },
    {
        "cityName": "Duisburg, GM",
        "stationId": "GHCND:GME00121450",
        "lat": 51.3953,
        "lon": 6.7031,
        "tMin": 1.384119106699752,
        "tAvgCold": null,
        "tMax": 5.869478908188589,
        "tAvgHot": null
    },
    {
        "cityName": "Durres, AL",
        "stationId": "GHCND:ALM00013615",
        "lat": 41.415,
        "lon": 19.721,
        "tMin": 2.1822335025380712,
        "tAvgCold": 7.196901408450706,
        "tMax": 32.71140684410646,
        "tAvgHot": 25.565198863636343
    },
    {
        "cityName": "Formosa, AR",
        "stationId": "GHCND:ARM00087162",
        "lat": -26.213,
        "lon": -58.228,
        "tMin": 11.205671641791056,
        "tAvgCold": 16.467883211678828,
        "tMax": 35.41779448621552,
        "tAvgHot": 27.753507853403114
    },
    {
        "cityName": "Francistown, BC",
        "stationId": "GHCND:BC008948490",
        "lat": -21.217,
        "lon": 27.5,
        "tMin": 4.857142857142855,
        "tAvgCold": 15.709201773835911,
        "tMax": 33.16633663366341,
        "tAvgHot": 25.85738444193916
    },
    {
        "cityName": "Fushun, CH",
        "stationId": "GHCND:CHM00054342",
        "lat": 41.733,
        "lon": 123.517,
        "tMin": -17.03509719222463,
        "tAvgCold": -11.456503642039557,
        "tMax": 29.043296703296672,
        "tAvgHot": 24.60916666666666
    },
    {
        "cityName": "Fuzhou, CH",
        "stationId": "GHCND:CHM00058847",
        "lat": 26.083,
        "lon": 119.283,
        "tMin": 8.501744820065433,
        "tAvgCold": 11.231009365244516,
        "tMax": 34.58285077951004,
        "tAvgHot": 29.25879292403745
    },
    {
        "cityName": "Gaborone, BC",
        "stationId": "GHCND:BC005847300",
        "lat": -24.667,
        "lon": 25.917,
        "tMin": 5.14121863799283,
        "tAvgCold": 15.24612794612795,
        "tMax": 32.92913907284769,
        "tAvgHot": 27.43830508474577
    },
    {
        "cityName": "Garoua, CM",
        "stationId": "GHCND:CMM00064860",
        "lat": 9.336,
        "lon": 13.37,
        "tMin": 22.57018348623854,
        "tAvgCold": 26.544011976047905,
        "tMax": 40.22319474835887,
        "tAvgHot": 33.80254872563717
    },
    {
        "cityName": "Gonder, ET",
        "stationId": "GHCND:ET000063331",
        "lat": 12.55,
        "lon": 37.417,
        "tMin": 13.028198433420364,
        "tAvgCold": 18.473553719008272,
        "tMax": 29.344392523364487,
        "tAvgHot": 23.782191780821936
    },
    {
        "cityName": "Graz, AU",
        "stationId": "GHCND:AU000016402",
        "lat": 47.0831,
        "lon": 15.45,
        "tMin": -3.619187358916478,
        "tAvgCold": -1.3506250000000013,
        "tMax": 26.500765027322384,
        "tAvgHot": 20.495213319458898
    },
    {
        "cityName": "Guangzhou, CH",
        "stationId": "GHCND:CHM00059287",
        "lat": 23.217,
        "lon": 113.483,
        "tMin": 10.492632719393287,
        "tAvgCold": 13.905411030176897,
        "tMax": 33.24685714285718,
        "tAvgHot": 29.004370447450583
    },
    {
        "cityName": "Guiyang, CH",
        "stationId": "GHCND:CHM00057816",
        "lat": 26.583,
        "lon": 106.733,
        "tMin": 2.1907488986784136,
        "tAvgCold": 4.523517169614987,
        "tMax": 27.800571428571434,
        "tAvgHot": 23.403642039542138
    },
    {
        "cityName": "Hamburg, GM",
        "stationId": "GHCND:GME00123274",
        "lat": 53.4792,
        "lon": 9.8983,
        "tMin": -0.43891779396462033,
        "tAvgCold": null,
        "tMax": 4.147866805411029,
        "tAvgHot": null
    },
    {
        "cityName": "Hangzhou, CH",
        "stationId": "GHCND:CHM00058457",
        "lat": 30.233,
        "lon": 120.167,
        "tMin": 1.9070407040704058,
        "tAvgCold": 4.801456815816854,
        "tMax": 33.84954954954956,
        "tAvgHot": 29.14276795005201
    },
    {
        "cityName": "Hannover, GM",
        "stationId": "GHCND:GME00125254",
        "lat": 52.3208,
        "lon": 9.4306,
        "tMin": -0.08892005610098172,
        "tAvgCold": null,
        "tMax": 4.140252454417954,
        "tAvgHot": null
    },
    {
        "cityName": "Harbin, CH",
        "stationId": "GHCND:CHM00050953",
        "lat": 45.75,
        "lon": 126.767,
        "tMin": -22.93232432432435,
        "tAvgCold": -17.677315296566082,
        "tMax": 27.82992299229919,
        "tAvgHot": 23.262812500000006
    },
    {
        "cityName": "Hasselt, BE",
        "stationId": "GHCND:NLM00006380",
        "lat": 50.9053,
        "lon": 5.7617,
        "tMin": 0.12736732570239329,
        "tAvgCold": 2.8807291666666655,
        "tMax": 23.36066597294484,
        "tAvgHot": 18.433194588969823
    },
    {
        "cityName": "Havana, CU",
        "stationId": "GHCND:CUM00078325",
        "lat": 23.167,
        "lon": -82.35,
        "tMin": 18.539849624060142,
        "tAvgCold": 22.13517241379311,
        "tMax": 32.42347826086954,
        "tAvgHot": 27.73805601317956
    },
    {
        "cityName": "Hefei, CH",
        "stationId": "GHCND:CHM00058321",
        "lat": 31.867,
        "lon": 117.233,
        "tMin": -0.18785557986870888,
        "tAvgCold": 3.091571279916752,
        "tMax": 32.42249466950962,
        "tAvgHot": 28.478668054110326
    },
    {
        "cityName": "Helsinki, FI",
        "stationId": "GHCND:FI000000304",
        "lat": 60.1667,
        "lon": 24.95,
        "tMin": -7.027999999999998,
        "tAvgCold": null,
        "tMax": -1.8297142857142876,
        "tAvgHot": null
    },
    {
        "cityName": "Ho, GH",
        "stationId": "GHCND:GHM00065453",
        "lat": 6.6,
        "lon": 0.467,
        "tMin": 22.012765957446817,
        "tAvgCold": 25.59330143540669,
        "tMax": 34.62499999999999,
        "tAvgHot": 29.357222222222244
    },
    {
        "cityName": "Homyel', BO",
        "stationId": "GHCND:BOM00033041",
        "lat": 52.4,
        "lon": 30.95,
        "tMin": -7.5702643171806105,
        "tAvgCold": -4.689802289281997,
        "tMax": 25.293560606060602,
        "tAvgHot": 20.15608740894902
    },
    {
        "cityName": "Honiara, BP",
        "stationId": "GHCND:BP000091517",
        "lat": -9.417,
        "lon": 159.967,
        "tMin": 22.86704980842913,
        "tAvgCold": 26.589277389277395,
        "tMax": 31.911811023622054,
        "tAvgHot": 27.78621495327105
    },
    {
        "cityName": "Huhot, CH",
        "stationId": "GHCND:CHM00053463",
        "lat": 40.817,
        "lon": 111.683,
        "tMin": -15.551894374282444,
        "tAvgCold": -10.727055150884507,
        "tMax": 29.243586833144136,
        "tAvgHot": 23.26930280957334
    },
    {
        "cityName": "Ibague, CO",
        "stationId": "GHCND:COM00080214",
        "lat": 4.422,
        "lon": -75.133,
        "tMin": 18.999669966996706,
        "tAvgCold": 23.882988505747143,
        "tMax": 32.2862385321101,
        "tAvgHot": 26.521252796420583
    },
    {
        "cityName": "Innsbruck, AU",
        "stationId": "GHCND:GME00126106",
        "lat": 47.4783,
        "lon": 11.2667,
        "tMin": -4.866181061394384,
        "tAvgCold": null,
        "tMax": 3.271696149843917,
        "tAvgHot": null
    },
    {
        "cityName": "Iraklion, GR",
        "stationId": "GHCND:GR000016754",
        "lat": 35.3331,
        "lon": 25.1831,
        "tMin": 8.717440225035178,
        "tAvgCold": 12.010514285714287,
        "tMax": 29.151720047449672,
        "tAvgHot": 26.031113423517176
    },
    {
        "cityName": "Jima, ET",
        "stationId": "GHCND:ET000063402",
        "lat": 7.667,
        "lon": 36.833,
        "tMin": 13.515404699738898,
        "tAvgCold": 18.420881670533653,
        "tMax": 29.254910714285725,
        "tAvgHot": 20.94863523573202
    },
    {
        "cityName": "Jinan, CH",
        "stationId": "GHCND:CHM00054823",
        "lat": 36.6,
        "lon": 117.05,
        "tMin": -3.7248104008667395,
        "tAvgCold": -0.20884495317377724,
        "tMax": 32.097486338797786,
        "tAvgHot": 27.573826903023942
    },
    {
        "cityName": "Joao Pessoa, BR",
        "stationId": "GHCND:BR039402250",
        "lat": -7.1,
        "lon": -34.867,
        "tMin": 21.328813559322032,
        "tAvgCold": 24.335294117647074,
        "tMax": 31.07075471698113,
        "tAvgHot": 27.290189328743548
    },
    {
        "cityName": "Jyvaskyla, FI",
        "stationId": "GHCND:FI000002401",
        "lat": 62.4019,
        "lon": 25.6783,
        "tMin": -11.835483870967753,
        "tAvgCold": -8.236875000000008,
        "tMax": 21.91727367325701,
        "tAvgHot": 16.674583333333338
    },
    {
        "cityName": "Kabul, AF",
        "stationId": "GHCND:AFM00040948",
        "lat": 34.566,
        "lon": 69.212,
        "tMin": -3.6629629629629634,
        "tAvgCold": 0.2142284569138278,
        "tMax": 34.25000000000001,
        "tAvgHot": 27.046428571428546
    },
    {
        "cityName": "Kandahar, AF",
        "stationId": "GHCND:AFM00040990",
        "lat": 31.5,
        "lon": 65.85,
        "tMin": 1.2818181818181817,
        "tAvgCold": 7.482653061224494,
        "tMax": 41.90714285714286,
        "tAvgHot": 33.65960591133006
    },
    {
        "cityName": "Kashi, CH",
        "stationId": "GHCND:CHM00051709",
        "lat": 39.467,
        "lon": 75.983,
        "tMin": -9.77478813559322,
        "tAvgCold": -4.972112382934443,
        "tMax": 31.951314285714293,
        "tAvgHot": 25.831425598335045
    },
    {
        "cityName": "Kiel, GM",
        "stationId": "GHCND:GME00131050",
        "lat": 54.3208,
        "lon": 9.8058,
        "tMin": -0.6458333333333333,
        "tAvgCold": null,
        "tMax": 3.861859582542696,
        "tAvgHot": null
    },
    {
        "cityName": "Kinshasa, CG",
        "stationId": "GHCND:CF000004450",
        "lat": -4.25,
        "lon": 15.25,
        "tMin": 19.05503211991435,
        "tAvgCold": 23.040589569161003,
        "tMax": 32.470709382151085,
        "tAvgHot": 26.613805104408325
    },
    {
        "cityName": "Klagenfurt, AU",
        "stationId": "GHCND:AUM00011231",
        "lat": 46.65,
        "lon": 14.333,
        "tMin": -6.87554112554112,
        "tAvgCold": -3.1429166666666637,
        "tMax": 26.575718015665824,
        "tAvgHot": 19.662122788761724
    },
    {
        "cityName": "Koforidua, GH",
        "stationId": "GHCND:GHM00065459",
        "lat": 6.083,
        "lon": -0.25,
        "tMin": 22.01159420289855,
        "tAvgCold": 25.27695852534563,
        "tMax": 33.94571428571428,
        "tAvgHot": 28.51618497109825
    },
    {
        "cityName": "Kumasi, GH",
        "stationId": "GHCND:GHM00065442",
        "lat": 6.715,
        "lon": -1.591,
        "tMin": 21.57079646017699,
        "tAvgCold": 24.512500000000014,
        "tMax": 33.911111111111104,
        "tAvgHot": 28.108196721311472
    },
    {
        "cityName": "Kunming, CH",
        "stationId": "GHCND:CHM00056778",
        "lat": 25.017,
        "lon": 102.683,
        "tMin": 4.430357142857148,
        "tAvgCold": 9.034963579604584,
        "tMax": 24.881379310344837,
        "tAvgHot": 20.370537634408635
    },
    {
        "cityName": "Kuopio, FI",
        "stationId": "GHCND:FIE00144707",
        "lat": 62.9,
        "lon": 27.6831,
        "tMin": -12.166129032258068,
        "tAvgCold": null,
        "tMax": -5.924423963133638,
        "tAvgHot": null
    },
    {
        "cityName": "La Paz, BL",
        "stationId": "GHCND:BLM00085201",
        "lat": -16.513,
        "lon": -68.192,
        "tMin": -4.187499999999999,
        "tAvgCold": 4.855381400208988,
        "tMax": 16.993246753246805,
        "tAvgHot": 8.912944983818768
    },
    {
        "cityName": "La Plata, AR",
        "stationId": "GHCND:ARM00087593",
        "lat": -34.972,
        "lon": -57.895,
        "tMin": 4.429478827361573,
        "tAvgCold": 9.85668449197859,
        "tMax": 30.335211267605622,
        "tAvgHot": 24.296463022508057
    },
    {
        "cityName": "La Rioja, AR",
        "stationId": "GHCND:AR000087217",
        "lat": -29.383,
        "lon": -66.817,
        "tMin": 4.043275488069415,
        "tAvgCold": 11.897581493165074,
        "tMax": 35.25738786279681,
        "tAvgHot": 28.16854754440962
    },
    {
        "cityName": "La Serena, CI",
        "stationId": "GHCND:CI000085488",
        "lat": -29.917,
        "lon": -71.2,
        "tMin": 7.353808353808357,
        "tAvgCold": 11.063417190775684,
        "tMax": 21.705300353356904,
        "tAvgHot": 17.472235023041506
    },
    {
        "cityName": "Laghouat, AG",
        "stationId": "GHCND:AGE00147719",
        "lat": 33.7997,
        "lon": 2.89,
        "tMin": 2.041463414634147,
        "tAvgCold": 8.149892473118284,
        "tMax": 40.14938271604939,
        "tAvgHot": 32.57383966244725
    },
    {
        "cityName": "Leipzig, GM",
        "stationId": "GHCND:GME00130654",
        "lat": 51.0539,
        "lon": 12.1442,
        "tMin": -1.6597294484911564,
        "tAvgCold": null,
        "tMax": 3.314568158168575,
        "tAvgHot": null
    },
    {
        "cityName": "Lhasa, CH",
        "stationId": "GHCND:CHM00055591",
        "lat": 29.667,
        "lon": 91.133,
        "tMin": -7.469841269841268,
        "tAvgCold": -0.32177083333333256,
        "tMax": 23.871477663230223,
        "tAvgHot": 16.645591397849454
    },
    {
        "cityName": "Libreville, GB",
        "stationId": "GHCND:GBM00064500",
        "lat": 0.459,
        "lon": 9.412,
        "tMin": 22.088316151202736,
        "tAvgCold": 24.793621867881587,
        "tMax": 31.002626641651055,
        "tAvgHot": 27.48963963963956
    },
    {
        "cityName": "Lille, FR",
        "stationId": "GHCND:FRE00104040",
        "lat": 50.57,
        "lon": 3.0975,
        "tMin": 1.317169614984391,
        "tAvgCold": 3.6345833333333335,
        "tMax": 23.271279916753404,
        "tAvgHot": 18.47599164926932
    },
    {
        "cityName": "Limoges, FR",
        "stationId": "GHCND:FRE00106195",
        "lat": 45.8608,
        "lon": 1.175,
        "tMin": 1.4405827263267412,
        "tAvgCold": 3.9307291666666657,
        "tMax": 23.987825182101947,
        "tAvgHot": 19.164932362122762
    },
    {
        "cityName": "Lokossa, BN",
        "stationId": "GHCND:TO000005380",
        "lat": 6.58,
        "lon": 1.5,
        "tMin": 22.103640776699024,
        "tAvgCold": 25.695953757225443,
        "tMax": 36.06576086956523,
        "tAvgHot": 29.16946564885496
    },
    {
        "cityName": "Loubomo, CF",
        "stationId": "GHCND:CF000004401",
        "lat": -4.18,
        "lon": 12.67,
        "tMin": 18.508604651162795,
        "tAvgCold": 22.49030303030302,
        "tMax": 32.07056962025318,
        "tAvgHot": 26.56930455635493
    },
    {
        "cityName": "Luanda, AO",
        "stationId": "GHCND:AO000066160",
        "lat": -8.85,
        "lon": 13.233,
        "tMin": 18.097727272727266,
        "tAvgCold": 21.09922279792745,
        "tMax": 31.72641509433962,
        "tAvgHot": 27.747706422018336
    },
    {
        "cityName": "Lumumbashi, CG",
        "stationId": "GHCND:CGM00064360",
        "lat": -11.591,
        "lon": 27.531,
        "tMin": 10.65,
        "tAvgCold": 19.72769230769231,
        "tMax": null,
        "tAvgHot": 27.631034482758615
    },
    {
        "cityName": "Lyon, FR",
        "stationId": "GHCND:FR069029001",
        "lat": 45.7264,
        "lon": 5.0778,
        "tMin": 0.46420395421435956,
        "tAvgCold": 3.543055555555555,
        "tMax": 27.095629552549447,
        "tAvgHot": 22.531449893390207
    },
    {
        "cityName": "Macapa, BR",
        "stationId": "GHCND:BRM00082098",
        "lat": 0.051,
        "lon": -51.072,
        "tMin": 23.293150684931522,
        "tAvgCold": 26.361683417085406,
        "tMax": 33.399565217391284,
        "tAvgHot": 28.870975056689346
    },
    {
        "cityName": "Macau, CH",
        "stationId": "GHCND:MCM00045011",
        "lat": 22.15,
        "lon": 113.592,
        "tMin": 12.151433389544676,
        "tAvgCold": 15.056666666666667,
        "tMax": 31.893384223918577,
        "tAvgHot": 28.74609781477627
    },
    {
        "cityName": "Maceio, BR",
        "stationId": "GHCND:BR038983570",
        "lat": -9.517,
        "lon": -35.783,
        "tMin": 20.170223752151475,
        "tAvgCold": 23.34884696016773,
        "tMax": 31.56603325415676,
        "tAvgHot": 26.787079831932775
    },
    {
        "cityName": "Magdeburg, GM",
        "stationId": "GHCND:GME00102252",
        "lat": 52.1031,
        "lon": 11.5842,
        "tMin": -1.8415192507804379,
        "tAvgCold": 1.6548387096774195,
        "tMax": 24.400208116545272,
        "tAvgHot": 20.49473684210526
    },
    {
        "cityName": "Manama, BA",
        "stationId": "GHCND:BA000041150",
        "lat": 26.267,
        "lon": 50.65,
        "tMin": 13.970270270270264,
        "tAvgCold": 17.083210137275607,
        "tMax": 39.30535248041781,
        "tAvgHot": 34.81675338189386
    },
    {
        "cityName": "Mandalay, BM",
        "stationId": "GHCND:BMM00048042",
        "lat": 21.983,
        "lon": 96.1,
        "tMin": 14.361176470588228,
        "tAvgCold": 22.88198874296433,
        "tMax": 38.83945945945948,
        "tAvgHot": 32.030365296803645
    },
    {
        "cityName": "Maroua, CM",
        "stationId": "GHCND:CMM00064851",
        "lat": 10.451,
        "lon": 14.257,
        "tMin": 17.19181286549708,
        "tAvgCold": 25.037552742616036,
        "tMax": 39.72403846153847,
        "tAvgHot": 33.5814814814815
    },
    {
        "cityName": "Marsa Matruh, EG",
        "stationId": "GHCND:EG000062306",
        "lat": 31.3331,
        "lon": 27.2167,
        "tMin": 9.498145506419405,
        "tAvgCold": 13.704968287526412,
        "tMax": 30.27727272727272,
        "tAvgHot": 26.623958333333302
    },
    {
        "cityName": "Marseille, FR",
        "stationId": "GHCND:FR013055001",
        "lat": 43.305,
        "lon": 5.3967,
        "tMin": 4.939219015280132,
        "tAvgCold": null,
        "tMax": 11.796604414261445,
        "tAvgHot": null
    },
    {
        "cityName": "Mbuji-Mayi, CG",
        "stationId": "GHCND:CGM00064247",
        "lat": -6.167,
        "lon": 23.617,
        "tMin": 19.2,
        "tAvgCold": 25.88571428571429,
        "tMax": 33.385714285714286,
        "tAvgHot": 29.091666666666665
    },
    {
        "cityName": "Medellin, CO",
        "stationId": "GHCND:COM00080112",
        "lat": 6.165,
        "lon": -75.423,
        "tMin": 12.752164948453611,
        "tAvgCold": 16.35613425925928,
        "tMax": 23.219354838709677,
        "tAvgHot": 17.151071025930086
    },
    {
        "cityName": "Mendoza, AR",
        "stationId": "GHCND:AR000087418",
        "lat": -32.833,
        "lon": -68.783,
        "tMin": 1.762832800851974,
        "tAvgCold": 8.409989594172725,
        "tMax": 32.868791500663995,
        "tAvgHot": 25.7821875
    },
    {
        "cityName": "Minsk, BO",
        "stationId": "GHCND:BOM00026850",
        "lat": 53.87,
        "lon": 27.53,
        "tMin": -7.009888751545127,
        "tAvgCold": -4.581581685744009,
        "tMax": 23.828160919540235,
        "tAvgHot": 19.011654526534866
    },
    {
        "cityName": "Monteria, CO",
        "stationId": "GHCND:COM00080063",
        "lat": 8.824,
        "lon": -75.826,
        "tMin": 23.32890173410404,
        "tAvgCold": 28.413419913419908,
        "tMax": 35.09891304347825,
        "tAvgHot": 29.617241379310336
    },
    {
        "cityName": "Montpellier, FR",
        "stationId": "GHCND:FRE00106207",
        "lat": 43.5767,
        "lon": 3.9631,
        "tMin": 2.8730489073881342,
        "tAvgCold": 6.9265624999999975,
        "tMax": 29.373465140478693,
        "tAvgHot": 24.316961498439102
    },
    {
        "cityName": "Montreal, CA",
        "stationId": "GHCND:CA007037400",
        "lat": 45.8,
        "lon": -74.05,
        "tMin": -15.81554524361949,
        "tAvgCold": null,
        "tMax": -5.883058823529411,
        "tAvgHot": null
    },
    {
        "cityName": "Mostaganem, AG",
        "stationId": "GHCND:AGM00060457",
        "lat": 35.883,
        "lon": 0.117,
        "tMin": 5.331310679611648,
        "tAvgCold": 10.68821218074656,
        "tMax": 32.226923076923065,
        "tAvgHot": 26.16908396946567
    },
    {
        "cityName": "Moundou, CD",
        "stationId": "GHCND:CD000064706",
        "lat": 8.567,
        "lon": 16.067,
        "tMin": 21.46234096692111,
        "tAvgCold": 26.307528957528934,
        "tMax": 38.9258064516129,
        "tAvgHot": 33.370249520153564
    },
    {
        "cityName": "Munich, GM",
        "stationId": "GHCND:GME00130234",
        "lat": 47.8833,
        "lon": 11.1589,
        "tMin": -4.7706250000000034,
        "tAvgCold": null,
        "tMax": 3.8377016129032255,
        "tAvgHot": null
    },
    {
        "cityName": "Myitkyina, BM",
        "stationId": "GHCND:BMM00048008",
        "lat": 25.367,
        "lon": 97.4,
        "tMin": 10.841336633663367,
        "tAvgCold": 18.75637065637066,
        "tMax": 31.91718749999999,
        "tAvgHot": 28.263119266055025
    },
    {
        "cityName": "Nanchang, CH",
        "stationId": "GHCND:CHM00058606",
        "lat": 28.6,
        "lon": 115.917,
        "tMin": 3.1757019438444942,
        "tAvgCold": 5.725390218522371,
        "tMax": 33.74155555555554,
        "tAvgHot": 29.569374999999987
    },
    {
        "cityName": "Nancy, FR",
        "stationId": "GHCND:FRE00171632",
        "lat": 48.5808,
        "lon": 5.9594,
        "tMin": -0.7929240374609783,
        "tAvgCold": 1.75084745762712,
        "tMax": 24.23704474505722,
        "tAvgHot": 18.789886363636352
    },
    {
        "cityName": "Nanjing, CH",
        "stationId": "GHCND:CHM00058238",
        "lat": 31.933,
        "lon": 118.9,
        "tMin": -0.4958612975391497,
        "tAvgCold": 2.9516129032258056,
        "tMax": 32.30838052095133,
        "tAvgHot": 28.268262226847007
    },
    {
        "cityName": "Nanning, CH",
        "stationId": "GHCND:CHM00059431",
        "lat": 22.633,
        "lon": 108.217,
        "tMin": 9.878006500541701,
        "tAvgCold": 12.802393340270543,
        "tMax": 32.83578595317727,
        "tAvgHot": 28.305619146722172
    },
    {
        "cityName": "Nantes, FR",
        "stationId": "GHCND:FRM00007222",
        "lat": 47.15,
        "lon": -1.6089,
        "tMin": 3.0842872008324638,
        "tAvgCold": 5.89541188738269,
        "tMax": 24.775754422476584,
        "tAvgHot": 19.4621227887617
    },
    {
        "cityName": "Nassau, BF",
        "stationId": "GHCND:BF000078073",
        "lat": 25.05,
        "lon": -77.467,
        "tMin": 18.032198952879575,
        "tAvgCold": 22.054669464847837,
        "tMax": 32.679404145077775,
        "tAvgHot": 28.962800417972836
    },
    {
        "cityName": "Natitingou, BN",
        "stationId": "GHCND:BN000005319",
        "lat": 10.32,
        "lon": 1.48,
        "tMin": 21.32587209302324,
        "tAvgCold": 24.788987341772128,
        "tMax": 37.83554140127391,
        "tAvgHot": 30.21563245823386
    },
    {
        "cityName": "Ndjamena, CD",
        "stationId": "GHCND:CD000004700",
        "lat": 12.13,
        "lon": 15.03,
        "tMin": 14.640792540792544,
        "tAvgCold": 23.59145199063233,
        "tMax": 42.01673076923078,
        "tAvgHot": 34.02802395209582
    },
    {
        "cityName": "Neiva, CO",
        "stationId": "GHCND:COM00080315",
        "lat": 2.95,
        "lon": -75.294,
        "tMin": 22.380693069306943,
        "tAvgCold": 27.407249070631977,
        "tMax": 35.496753246753265,
        "tAvgHot": 29.714128440366995
    },
    {
        "cityName": "Neuquen, AR",
        "stationId": "GHCND:AR000087715",
        "lat": -38.95,
        "lon": -68.133,
        "tMin": -0.1875268817204301,
        "tAvgCold": 6.438322717622076,
        "tMax": 32.200500625782226,
        "tAvgHot": 23.999035369774887
    },
    {
        "cityName": "Ngaoundere, CM",
        "stationId": "GHCND:CM000064870",
        "lat": 7.35,
        "lon": 13.567,
        "tMin": 10.346177370030581,
        "tAvgCold": 20.72989473684211,
        "tMax": 32.89442970822283,
        "tAvgHot": 24.624363636363643
    },
    {
        "cityName": "Nueva San Salvador, ES",
        "stationId": "GHCND:ES003800510",
        "lat": 13.7,
        "lon": -89.117,
        "tMin": 18.57058823529412,
        "tAvgCold": 24.430625832223694,
        "tMax": 33.02284122562675,
        "tAvgHot": 26.444665718349974
    },
    {
        "cityName": "Oran, AG",
        "stationId": "GHCND:AGM00060490",
        "lat": 35.624,
        "lon": -0.621,
        "tMin": 5.032958199356909,
        "tAvgCold": 10.70041797283177,
        "tMax": 32.39913366336634,
        "tAvgHot": 26.230375782881005
    },
    {
        "cityName": "Oruro, BL",
        "stationId": "GHCND:BLM00085242",
        "lat": -17.963,
        "lon": -67.076,
        "tMin": -6.225221238938056,
        "tAvgCold": 7.668470588235286,
        "tMax": 20.927750410509006,
        "tAvgHot": 14.557444314185222
    },
    {
        "cityName": "Ostrava, EZ",
        "stationId": "GHCND:EZM00011782",
        "lat": 49.696,
        "lon": 18.111,
        "tMin": -4.59462571976967,
        "tAvgCold": -1.4674568965517243,
        "tMax": 25.072848484848492,
        "tAvgHot": 19.05171696149843
    },
    {
        "cityName": "Ottawa, CA",
        "stationId": "GHCND:CA006106000",
        "lat": 45.3167,
        "lon": -75.6667,
        "tMin": -14.378743961352667,
        "tAvgCold": null,
        "tMax": -5.587922705314015,
        "tAvgHot": null
    },
    {
        "cityName": "Parakou, BN",
        "stationId": "GHCND:BNM00065330",
        "lat": 9.35,
        "lon": 2.617,
        "tMin": 21.580897250361804,
        "tAvgCold": 24.449573690621165,
        "tMax": 37.08402515723273,
        "tAvgHot": 29.9508875739645
    },
    {
        "cityName": "Parana, AR",
        "stationId": "GHCND:AR000087374",
        "lat": -31.783,
        "lon": -60.483,
        "tMin": 6.925604395604389,
        "tAvgCold": 11.660612691466083,
        "tMax": 31.463903061224453,
        "tAvgHot": 25.17516483516486
    },
    {
        "cityName": "Paris, FR",
        "stationId": "GHCND:FR000007150",
        "lat": 48.8231,
        "lon": 2.3367,
        "tMin": 2.507639836289224,
        "tAvgCold": 4.951117734724288,
        "tMax": 25.41198547215498,
        "tAvgHot": 20.391926345609072
    },
    {
        "cityName": "Pasto, CO",
        "stationId": "GHCND:CO000080342",
        "lat": 1.417,
        "lon": -77.267,
        "tMin": 14.429583975346658,
        "tAvgCold": 19.07859327217127,
        "tMax": 24.352554744525545,
        "tAvgHot": 21.46885714285715
    },
    {
        "cityName": "Pereira, CO",
        "stationId": "GHCND:COM00080210",
        "lat": 4.813,
        "lon": -75.74,
        "tMin": 17.386895161290322,
        "tAvgCold": 21.49670828603858,
        "tMax": 27.855749128919857,
        "tAvgHot": 22.38200253485423
    },
    {
        "cityName": "Perth, AS",
        "stationId": "GHCND:ASN00009021",
        "lat": -31.9275,
        "lon": 115.9764,
        "tMin": 8.031841831425595,
        "tAvgCold": 12.677731529656592,
        "tMax": 32.48525714285713,
        "tAvgHot": 24.82685714285714
    },
    {
        "cityName": "Phnom Penh, CB",
        "stationId": "GHCND:CBM00048991",
        "lat": 11.547,
        "lon": 104.844,
        "tMin": 22.461988304093577,
        "tAvgCold": 27.27949479940565,
        "tMax": 34.8,
        "tAvgHot": 31.008813559322018
    },
    {
        "cityName": "Pointe Noire, CF",
        "stationId": "GHCND:CF000004400",
        "lat": -4.82,
        "lon": 11.9,
        "tMin": 19.50879864636208,
        "tAvgCold": 22.623775388291527,
        "tMax": 31.373800738007382,
        "tAvgHot": 27.60442583732057
    },
    {
        "cityName": "Poitiers, FR",
        "stationId": "GHCND:FRM00007335",
        "lat": 46.588,
        "lon": 0.307,
        "tMin": 0.999304347826087,
        "tAvgCold": 4.669583333333329,
        "tMax": 26.071176470588235,
        "tAvgHot": 19.838854166666668
    },
    {
        "cityName": "Port Gentil, GB",
        "stationId": "GHCND:GB000004501",
        "lat": -0.72,
        "lon": 8.78,
        "tMin": 22.06801948051948,
        "tAvgCold": 24.20343511450383,
        "tMax": 30.88078994614009,
        "tAvgHot": 28.30445859872613
    },
    {
        "cityName": "Porto Alegre, BR",
        "stationId": "GHCND:BRM00083967",
        "lat": -29.946,
        "lon": -51.144,
        "tMin": 10.63333333333333,
        "tAvgCold": 14.430740740740744,
        "tMax": 32.44126984126984,
        "tAvgHot": 26.1564681724846
    },
    {
        "cityName": "Posadas, AR",
        "stationId": "GHCND:ARM00087178",
        "lat": -27.386,
        "lon": -55.971,
        "tMin": 11.01923076923076,
        "tAvgCold": 16.176041666666634,
        "tMax": 34.12686567164178,
        "tAvgHot": 27.16492146596857
    },
    {
        "cityName": "Potosi, BL",
        "stationId": "GHCND:BLM00085293",
        "lat": -19.543,
        "lon": -65.724,
        "tMin": -5.17479224376731,
        "tAvgCold": 7.985540334855411,
        "tMax": 18.633971291866047,
        "tAvgHot": 12.634769687964345
    },
    {
        "cityName": "Potsdam, GM",
        "stationId": "GHCND:GM000003342",
        "lat": 52.3833,
        "lon": 13.0639,
        "tMin": -2.276586888657644,
        "tAvgCold": 1.051612903225806,
        "tMax": 24.33704474505722,
        "tAvgHot": 20.37368421052632
    },
    {
        "cityName": "Prague, EZ",
        "stationId": "GHCND:EZE00100082",
        "lat": 50.0864,
        "lon": 14.4164,
        "tMin": -1.2646697388632862,
        "tAvgCold": null,
        "tMax": 3.3863287250384024,
        "tAvgHot": null
    },
    {
        "cityName": "Praia, CV",
        "stationId": "GHCND:CVM00008589",
        "lat": 14.917,
        "lon": -23.6,
        "tMin": 19.205855855855855,
        "tAvgCold": 22.356011730205278,
        "tMax": 30.797424892703884,
        "tAvgHot": 27.218627450980414
    },
    {
        "cityName": "Puerto Limon, CS",
        "stationId": "GHCND:CS000081003",
        "lat": 9.967,
        "lon": -83.017,
        "tMin": 20.828896882493982,
        "tAvgCold": 25.846859903381613,
        "tMax": 30.399254658385058,
        "tAvgHot": 27.93630136986304
    },
    {
        "cityName": "Puerto Montt, CI",
        "stationId": "GHCND:CI000085799",
        "lat": -41.433,
        "lon": -73.1,
        "tMin": 2.9119601328903646,
        "tAvgCold": 6.551832460732983,
        "tMax": 20.751255230125512,
        "tAvgHot": 14.309214659685866
    },
    {
        "cityName": "Punta Arenas, CI",
        "stationId": "GHCND:CI000085934",
        "lat": -53,
        "lon": -70.967,
        "tMin": -1.2099650349650355,
        "tAvgCold": 1.7794549266247384,
        "tMax": 15.844050104384143,
        "tAvgHot": 10.622736842105256
    },
    {
        "cityName": "Qingdao, CH",
        "stationId": "GHCND:CHM00054857",
        "lat": 36.067,
        "lon": 120.333,
        "tMin": -2.7437013996889568,
        "tAvgCold": -0.3028124999999999,
        "tMax": 28.476911314984704,
        "tAvgHot": 25.784807492195633
    },
    {
        "cityName": "Qiqihar, CH",
        "stationId": "GHCND:CHM00050745",
        "lat": 47.383,
        "lon": 123.917,
        "tMin": -23.414838709677422,
        "tAvgCold": -18.326326742976075,
        "tMax": 27.97270718232042,
        "tAvgHot": 23.353645833333335
    },
    {
        "cityName": "Quibdo, CO",
        "stationId": "GHCND:COM00080144",
        "lat": 5.691,
        "lon": -76.641,
        "tMin": 23.350847457627122,
        "tAvgCold": 26.702281368821303,
        "tMax": 32.15925925925926,
        "tAvgHot": 27.479672131147545
    },
    {
        "cityName": "Rajshahi, BG",
        "stationId": "GHCND:BGM00041907",
        "lat": 24.153,
        "lon": 89.049,
        "tMin": 10.123376623376627,
        "tAvgCold": 16.64166666666668,
        "tMax": 33.71184834123222,
        "tAvgHot": 29.27078189300413
    },
    {
        "cityName": "Rangoon, BM",
        "stationId": "GHCND:BMM00048097",
        "lat": 16.907,
        "lon": 96.133,
        "tMin": 16.58733459357277,
        "tAvgCold": 25.39443690637719,
        "tMax": 37.71325051759834,
        "tAvgHot": 30.81220850480105
    },
    {
        "cityName": "Regina, CA",
        "stationId": "GHCND:CA004016699",
        "lat": 50.4333,
        "lon": -104.6667,
        "tMin": -19.357056451612895,
        "tAvgCold": null,
        "tMax": -8.428024193548389,
        "tAvgHot": null
    },
    {
        "cityName": "Rennes, FR",
        "stationId": "GHCND:FR000007130",
        "lat": 48.0689,
        "lon": -1.7339,
        "tMin": 2.987408949011448,
        "tAvgCold": 5.721666666666669,
        "tMax": 24.42445369406868,
        "tAvgHot": 18.847064989517843
    },
    {
        "cityName": "Resistencia, AR",
        "stationId": "GHCND:ARM00087166",
        "lat": -27.446,
        "lon": -58.762,
        "tMin": 9.426897689768982,
        "tAvgCold": 15.590010741138553,
        "tMax": 34.39909090909089,
        "tAvgHot": 27.359299781181605
    },
    {
        "cityName": "Rio Gallegos, AR",
        "stationId": "GHCND:AR000087925",
        "lat": -51.617,
        "lon": -69.283,
        "tMin": -2.323863636363639,
        "tAvgCold": 1.4738269030239837,
        "tMax": 20.249190535491906,
        "tAvgHot": 13.66341719077569
    },
    {
        "cityName": "Rio de Janeiro, BR",
        "stationId": "GHCND:BRM00083746",
        "lat": -22.809,
        "lon": -43.244,
        "tMin": 16.96258064516129,
        "tAvgCold": 21.227916666666644,
        "tMax": 32.81720430107527,
        "tAvgHot": 27.843699421965287
    },
    {
        "cityName": "Riohacha, CO",
        "stationId": "GHCND:COM00080035",
        "lat": 11.526,
        "lon": -72.926,
        "tMin": 22.883333333333333,
        "tAvgCold": 28.351744186046503,
        "tMax": 36.055681818181824,
        "tAvgHot": 31.320192307692317
    },
    {
        "cityName": "Rockhampton, AS",
        "stationId": "GHCND:ASN00039083",
        "lat": -23.3753,
        "lon": 150.4775,
        "tMin": 10.408012486992712,
        "tAvgCold": 16.571893147502912,
        "tMax": 32.49791883454738,
        "tAvgHot": 26.962817551963077
    },
    {
        "cityName": "Rosario, AR",
        "stationId": "GHCND:ARM00087480",
        "lat": -32.904,
        "lon": -60.785,
        "tMin": 4.123150684931508,
        "tAvgCold": 10.433860759493665,
        "tMax": 32.172404371584705,
        "tAvgHot": 24.777610333692127
    },
    {
        "cityName": "Rouen, FR",
        "stationId": "GHCND:FRE00106184",
        "lat": 49.3831,
        "lon": 1.1817,
        "tMin": 1.2370447450572337,
        "tAvgCold": 3.7651673640167385,
        "tMax": 22.857232049947964,
        "tAvgHot": 17.778787878787877
    },
    {
        "cityName": "Saarbrucken, GM",
        "stationId": "GHCND:GME00131290",
        "lat": 49.2417,
        "lon": 6.935,
        "tMin": -0.15569620253164543,
        "tAvgCold": null,
        "tMax": 5.291705069124422,
        "tAvgHot": null
    },
    {
        "cityName": "Sagaing, BM",
        "stationId": "GHCND:BMM00048042",
        "lat": 21.983,
        "lon": 96.1,
        "tMin": 14.361176470588232,
        "tAvgCold": 22.88198874296433,
        "tMax": 38.83945945945948,
        "tAvgHot": 32.030365296803645
    },
    {
        "cityName": "Saida, AG",
        "stationId": "GHCND:AGM00060536",
        "lat": 34.867,
        "lon": 0.15,
        "tMin": 2.6472154963680365,
        "tAvgCold": 7.906463878326991,
        "tMax": 36.83918367346943,
        "tAvgHot": 27.991115311909255
    },
    {
        "cityName": "Salta, AR",
        "stationId": "GHCND:AR000870470",
        "lat": -24.85,
        "lon": -65.483,
        "tMin": 2.5985807860261967,
        "tAvgCold": 10.438179916317988,
        "tMax": 28.582446808510603,
        "tAvgHot": 21.33315733896516
    },
    {
        "cityName": "San Andres, CO",
        "stationId": "GHCND:CO000080001",
        "lat": 12.583,
        "lon": -81.717,
        "tMin": 24.742278860569723,
        "tAvgCold": 26.882458233890212,
        "tMax": 29.542701863354026,
        "tAvgHot": 28.332734952481474
    },
    {
        "cityName": "San Jose, CS",
        "stationId": "GHCND:CSM00078762",
        "lat": 9.994,
        "lon": -84.209,
        "tMin": 17.86330275229355,
        "tAvgCold": 21.71086717892428,
        "tMax": 30.519507908611576,
        "tAvgHot": 23.840423031727415
    },
    {
        "cityName": "San Juan, AR",
        "stationId": "GHCND:ARM00087311",
        "lat": -31.571,
        "lon": -68.418,
        "tMin": -0.39695817490494295,
        "tAvgCold": 8.362173458725188,
        "tMax": 36.314903846153854,
        "tAvgHot": 27.294240837696368
    },
    {
        "cityName": "San Luis, AR",
        "stationId": "GHCND:ARM00087436",
        "lat": -33.273,
        "lon": -66.356,
        "tMin": 3.427528089887642,
        "tAvgCold": 10.154828326180251,
        "tMax": 32.77211055276383,
        "tAvgHot": 24.93132911392404
    },
    {
        "cityName": "San Miguel De Tucuman, AR",
        "stationId": "GHCND:ARM00087121",
        "lat": -26.841,
        "lon": -65.105,
        "tMin": 6.423076923076924,
        "tAvgCold": 12.569696969696986,
        "tMax": 32.97771260997067,
        "tAvgHot": 25.35322916666665
    },
    {
        "cityName": "San Salvador, ES",
        "stationId": "GHCND:ES003800510",
        "lat": 13.7,
        "lon": -89.117,
        "tMin": 18.57058823529412,
        "tAvgCold": 24.430625832223694,
        "tMax": 33.02284122562675,
        "tAvgHot": 26.444665718349974
    },
    {
        "cityName": "Santa Cruz de La Sierra, BL",
        "stationId": "GHCND:BLM00085244",
        "lat": -17.645,
        "lon": -63.135,
        "tMin": 14.84662698412698,
        "tAvgCold": 19.653187042842184,
        "tMax": 32.67386666666669,
        "tAvgHot": 25.743412526997854
    },
    {
        "cityName": "Santa Marta, CO",
        "stationId": "GHCND:COM00080009",
        "lat": 11.12,
        "lon": -74.231,
        "tMin": 22.30731261425961,
        "tAvgCold": 28.59765929778935,
        "tMax": 33.77104377104375,
        "tAvgHot": 29.952907801418487
    },
    {
        "cityName": "Santa Rosa, AR",
        "stationId": "GHCND:AR000087623",
        "lat": -36.567,
        "lon": -64.266,
        "tMin": 1.6075471698113188,
        "tAvgCold": 7.68520084566596,
        "tMax": 31.38524590163936,
        "tAvgHot": 23.83653017241377
    },
    {
        "cityName": "Santarem, BR",
        "stationId": "GHCND:BR000254000",
        "lat": -2.433,
        "lon": -54.717,
        "tMin": 24.062837837837844,
        "tAvgCold": 26.691231732776647,
        "tMax": 33.31968503937008,
        "tAvgHot": 28.934374999999967
    },
    {
        "cityName": "Santiago Del Estero, AR",
        "stationId": "GHCND:AR000087129",
        "lat": -27.767,
        "lon": -64.3,
        "tMin": 4.654973262032082,
        "tAvgCold": 14.037355718782777,
        "tMax": 34.317576564580555,
        "tAvgHot": 27.240569020021073
    },
    {
        "cityName": "Santiago, CI",
        "stationId": "GHCND:CIM00085574",
        "lat": -33.393,
        "lon": -70.786,
        "tMin": 2.196165191740415,
        "tAvgCold": 8.03048907388137,
        "tMax": 30.83618290258451,
        "tAvgHot": 21.129687499999996
    },
    {
        "cityName": "Santo Domingo, DR",
        "stationId": "GHCND:DRM00078486",
        "lat": 18.433,
        "lon": -69.883,
        "tMin": 20.436106750392494,
        "tAvgCold": 24.598041775456885,
        "tMax": 32.58219395866456,
        "tAvgHot": 27.526953125000023
    },
    {
        "cityName": "Sarajevo, BK",
        "stationId": "GHCND:BKM00014654",
        "lat": 43.8678,
        "lon": 18.4228,
        "tMin": -2.9902185223725257,
        "tAvgCold": 0.47469635627530327,
        "tMax": 27.967845993756512,
        "tAvgHot": 21.397519083969488
    },
    {
        "cityName": "Sarh, CD",
        "stationId": "GHCND:CD000004750",
        "lat": 9.15,
        "lon": 18.38,
        "tMin": 21.770912951167716,
        "tAvgCold": 25.978326474622794,
        "tMax": 39.50000000000001,
        "tAvgHot": 32.61063174114024
    },
    {
        "cityName": "Schwerin, GM",
        "stationId": "GHCND:GM000003038",
        "lat": 53.6442,
        "lon": 11.3883,
        "tMin": -1.4606659729448497,
        "tAvgCold": 1.7032258064516124,
        "tMax": 23.12403746097815,
        "tAvgHot": 19.045161290322582
    },
    {
        "cityName": "Sekondi, GH",
        "stationId": "GHCND:GHM00065467",
        "lat": 4.896,
        "lon": -1.775,
        "tMin": 22.292499999999997,
        "tAvgCold": 25.082051282051292,
        "tMax": 31.8472868217054,
        "tAvgHot": 28.534673366834163
    },
    {
        "cityName": "Shanghai, CH",
        "stationId": "GHCND:CHM00058367",
        "lat": 31.167,
        "lon": 121.433,
        "tMin": 1.842137096774193,
        "tAvgCold": 4.939374999999998,
        "tMax": 32.512096774193544,
        "tAvgHot": 28.80915712799168
    },
    {
        "cityName": "Sharjah, AE",
        "stationId": "GHCND:AEM00041194",
        "lat": 25.255,
        "lon": 55.364,
        "tMin": 14.599847792998489,
        "tAvgCold": 19.403970741901777,
        "tMax": 41.598286413708664,
        "tAvgHot": 35.48876170655568
    },
    {
        "cityName": "Shenyang, CH",
        "stationId": "GHCND:CHM00054342",
        "lat": 41.733,
        "lon": 123.517,
        "tMin": -17.03509719222463,
        "tAvgCold": -11.456503642039557,
        "tMax": 29.043296703296672,
        "tAvgHot": 24.60916666666666
    },
    {
        "cityName": "Shijiazhuang, CH",
        "stationId": "GHCND:CHM00053698",
        "lat": 38.033,
        "lon": 114.417,
        "tMin": -5.510932475884241,
        "tAvgCold": -1.557127991675337,
        "tMax": 32.34326018808776,
        "tAvgHot": 27.474583333333317
    },
    {
        "cityName": "Sittwe, BM",
        "stationId": "GHCND:BMM00048062",
        "lat": 20.133,
        "lon": 92.873,
        "tMin": 14.160536398467444,
        "tAvgCold": 22.4595238095238,
        "tMax": 32.49779179810727,
        "tAvgHot": 29.556282722513075
    },
    {
        "cityName": "Skikda, AG",
        "stationId": "GHCND:AGM00060355",
        "lat": 36.933,
        "lon": 6.95,
        "tMin": 8.865925925925925,
        "tAvgCold": 12.509704142011827,
        "tMax": 29.4029593094945,
        "tAvgHot": 26.332247191011238
    },
    {
        "cityName": "Sofia, BU",
        "stationId": "GHCND:BUM00015614",
        "lat": 42.695,
        "lon": 23.406,
        "tMin": -4.31220472440945,
        "tAvgCold": -1.0165769644779312,
        "tMax": 27.582420091324206,
        "tAvgHot": 21.496344086021544
    },
    {
        "cityName": "Sonsonate, ES",
        "stationId": "GHCND:ES000078650",
        "lat": 13.567,
        "lon": -89.833,
        "tMin": 23.656118143459935,
        "tAvgCold": 28.296844181459583,
        "tMax": 33.91413690476196,
        "tAvgHot": 30.140641711229918
    },
    {
        "cityName": "Strasbourg, FR",
        "stationId": "GHCND:GME00127750",
        "lat": 48.6708,
        "lon": 7.9956,
        "tMin": -1.0570239334027047,
        "tAvgCold": null,
        "tMax": 4.81602497398543,
        "tAvgHot": null
    },
    {
        "cityName": "Stuttgart, GM",
        "stationId": "GHCND:GME00115771",
        "lat": 48.8292,
        "lon": 9.2008,
        "tMin": -0.9817898022892808,
        "tAvgCold": 0.7782258064516129,
        "tMax": 24.67908428720087,
        "tAvgHot": 19.493333333333354
    },
    {
        "cityName": "Sucre, BL",
        "stationId": "GHCND:BLM00085283",
        "lat": -19.007,
        "lon": -65.289,
        "tMin": 4.014874551971325,
        "tAvgCold": 13.926560726447226,
        "tMax": 21.962170542635658,
        "tAvgHot": 17.14135166093931
    },
    {
        "cityName": "Sunyani, GH",
        "stationId": "GHCND:GHM00065439",
        "lat": 7.362,
        "lon": -2.329,
        "tMin": 21.070748299319728,
        "tAvgCold": 24.6888888888889,
        "tMax": 34.05384615384615,
        "tAvgHot": 28.2
    },
    {
        "cityName": "Suva, FJ",
        "stationId": "GHCND:FJM00091683",
        "lat": -18.043,
        "lon": 178.559,
        "tMin": 19.354029850746272,
        "tAvgCold": 22.771458333333342,
        "tMax": 31.30346666666667,
        "tAvgHot": 26.642514285714217
    },
    {
        "cityName": "Sydney, AS",
        "stationId": "GHCND:ASN00066062",
        "lat": -33.8607,
        "lon": 151.205,
        "tMin": 8.851249999999995,
        "tAvgCold": null,
        "tMax": 17.605723204994778,
        "tAvgHot": null
    },
    {
        "cityName": "Taiyuan, CH",
        "stationId": "GHCND:CHM00053772",
        "lat": 37.783,
        "lon": 112.55,
        "tMin": -10.600878155872651,
        "tAvgCold": -4.789698231009367,
        "tMax": 30.107054871220594,
        "tAvgHot": 24.13392299687824
    },
    {
        "cityName": "Tallinn, EN",
        "stationId": "GHCND:EN000026038",
        "lat": 59.3831,
        "lon": 24.5831,
        "tMin": -6.732359081419616,
        "tAvgCold": -4.291542857142859,
        "tMax": 22.389009497964715,
        "tAvgHot": 17.4926393270242
    },
    {
        "cityName": "Tamale, GH",
        "stationId": "GHCND:GHM00065418",
        "lat": 9.557,
        "lon": -0.863,
        "tMin": 22.67042253521126,
        "tAvgCold": 26.625714285714302,
        "tMax": 38.37777777777776,
        "tAvgHot": 32.41042944785272
    },
    {
        "cityName": "Tarija, BL",
        "stationId": "GHCND:BL000085364",
        "lat": -21.55,
        "lon": -64.7,
        "tMin": 2.404705882352939,
        "tAvgCold": 14.657126567844923,
        "tMax": 28.184142394822036,
        "tAvgHot": 22.037831603229503
    },
    {
        "cityName": "Temuco, CI",
        "stationId": "GHCND:CI000085743",
        "lat": -38.75,
        "lon": -72.633,
        "tMin": 3.3885222381635605,
        "tAvgCold": 7.168927789934357,
        "tMax": 26.059677419354834,
        "tAvgHot": 16.290624999999977
    },
    {
        "cityName": "Tianjin, CH",
        "stationId": "GHCND:CHM00054527",
        "lat": 39.1,
        "lon": 117.167,
        "tMin": -7.45429184549357,
        "tAvgCold": -3.295941727367323,
        "tMax": 31.359541188738305,
        "tAvgHot": 26.903333333333297
    },
    {
        "cityName": "Tirana, AL",
        "stationId": "GHCND:ALM00013615",
        "lat": 41.415,
        "lon": 19.721,
        "tMin": 2.1822335025380717,
        "tAvgCold": 7.196901408450706,
        "tMax": 32.71140684410646,
        "tAvgHot": 25.56519886363635
    },
    {
        "cityName": "Tlemcen, AG",
        "stationId": "GHCND:AGM00060531",
        "lat": 35.017,
        "lon": -1.45,
        "tMin": 5.234600760456283,
        "tAvgCold": 10.41631799163179,
        "tMax": 33.772418136020185,
        "tAvgHot": 26.49384133611695
    },
    {
        "cityName": "Toronto, CA",
        "stationId": "GHCND:CA006150103",
        "lat": 43.9167,
        "lon": -79.8333,
        "tMin": -10.605376344086022,
        "tAvgCold": null,
        "tMax": -2.2132796780684103,
        "tAvgHot": null
    },
    {
        "cityName": "Toulouse, FR",
        "stationId": "GHCND:FR000007630",
        "lat": 43.6208,
        "lon": 1.3789,
        "tMin": 2.419458896982311,
        "tAvgCold": 5.639583333333332,
        "tMax": 28.18335067637875,
        "tAvgHot": 22.16566077003121
    },
    {
        "cityName": "Trincomalee, CE",
        "stationId": "GHCND:CEM00043418",
        "lat": 8.539,
        "lon": 81.182,
        "tMin": 23.513131313131296,
        "tAvgCold": 26.004952830188667,
        "tMax": 35.268126520681264,
        "tAvgHot": 29.97401392111369
    },
    {
        "cityName": "Trinidad, BL",
        "stationId": "GHCND:BLM00085154",
        "lat": -14.819,
        "lon": -64.918,
        "tMin": 16.25827439886845,
        "tAvgCold": 23.532488986784145,
        "tMax": 33.37479541734859,
        "tAvgHot": 27.689712389380563
    },
    {
        "cityName": "Turku, FI",
        "stationId": "GHCND:FIE00141935",
        "lat": 60.3867,
        "lon": 22.5544,
        "tMin": -7.615296566076998,
        "tAvgCold": -5.237610619469024,
        "tMax": 22.307284079084283,
        "tAvgHot": 17.897177419354847
    },
    {
        "cityName": "Urumqi, CH",
        "stationId": "GHCND:CHM00051463",
        "lat": 43.8,
        "lon": 87.65,
        "tMin": -16.158639308855285,
        "tAvgCold": -12.286160249739856,
        "tMax": 29.91209766925636,
        "tAvgHot": 24.067812499999985
    },
    {
        "cityName": "Ushuaia, AR",
        "stationId": "GHCND:ARM00087938",
        "lat": -54.843,
        "lon": -68.296,
        "tMin": -0.9913752913752917,
        "tAvgCold": 1.9662820512820507,
        "tMax": 14.801392757660171,
        "tAvgHot": 9.913600000000004
    },
    {
        "cityName": "Usti Nad Labem, EZ",
        "stationId": "GHCND:GME00130702",
        "lat": 50.7328,
        "lon": 13.7531,
        "tMin": -5.89823100936525,
        "tAvgCold": null,
        "tMax": -1.35369406867846,
        "tAvgHot": null
    },
    {
        "cityName": "Valledupar, CO",
        "stationId": "GHCND:COM00080036",
        "lat": 10.435,
        "lon": -73.25,
        "tMin": 23.502380952380957,
        "tAvgCold": 28.70638297872343,
        "tMax": 36.766666666666666,
        "tAvgHot": 30.79830508474573
    },
    {
        "cityName": "Varna, BU",
        "stationId": "GHCND:BUM00015552",
        "lat": 43.232,
        "lon": 27.825,
        "tMin": -1.0630630630630626,
        "tAvgCold": 2.01291711517761,
        "tMax": 28.531788079470243,
        "tAvgHot": 22.920107526881697
    },
    {
        "cityName": "Vienna, AU",
        "stationId": "GHCND:AU000005901",
        "lat": 48.2331,
        "lon": 16.35,
        "tMin": -1.7295652173913056,
        "tAvgCold": 0.6871848739495799,
        "tMax": 26.77831074035452,
        "tAvgHot": 21.01183932346723
    },
    {
        "cityName": "Villavicencio, CO",
        "stationId": "GHCND:COM00080234",
        "lat": 4.168,
        "lon": -73.614,
        "tMin": 20.28181818181818,
        "tAvgCold": 25.44414168937331,
        "tMax": 33.08571428571429,
        "tAvgHot": 28.297922848664694
    },
    {
        "cityName": "Vitsyebsk, BO",
        "stationId": "GHCND:BOM00026666",
        "lat": 55.167,
        "lon": 30.217,
        "tMin": -9.032193158953728,
        "tAvgCold": -5.453277835587932,
        "tMax": 23.99247787610621,
        "tAvgHot": 18.959729448491146
    },
    {
        "cityName": "Wa, GH",
        "stationId": "GHCND:GHM00065404",
        "lat": 10.083,
        "lon": -2.508,
        "tMin": 22.16102564102564,
        "tAvgCold": 25.982698961937707,
        "tMax": 37.87500000000002,
        "tAvgHot": 31.752868852459006
    },
    {
        "cityName": "Wuhan, CH",
        "stationId": "GHCND:CHM00057494",
        "lat": 30.6,
        "lon": 114.05,
        "tMin": 0.9837837837837823,
        "tAvgCold": 4.20187304890739,
        "tMax": 33.08076490438695,
        "tAvgHot": 29.22976066597294
    },
    {
        "cityName": "Xi'an, CH",
        "stationId": "GHCND:CHM00057036",
        "lat": 34.3,
        "lon": 108.933,
        "tMin": -3.2157258064516134,
        "tAvgCold": 0.09250780437044727,
        "tMax": 32.60013440860215,
        "tAvgHot": 27.130801248699264
    },
    {
        "cityName": "Xining, CH",
        "stationId": "GHCND:CHM00052866",
        "lat": 36.617,
        "lon": 101.767,
        "tMin": -14.21694915254238,
        "tAvgCold": -7.48272632674297,
        "tMax": 24.891328210757365,
        "tAvgHot": 17.31093749999998
    },
    {
        "cityName": "Yerevan, AM",
        "stationId": "GHCND:AM000037781",
        "lat": 40.5,
        "lon": 44.2,
        "tMin": -15.951032448377594,
        "tAvgCold": null,
        "tMax": -9.31790322580645,
        "tAvgHot": null
    },
    {
        "cityName": "Yinchuan, CH",
        "stationId": "GHCND:CHM00053614",
        "lat": 38.467,
        "lon": 106.2,
        "tMin": -12.550746268656718,
        "tAvgCold": -6.981373569198755,
        "tMax": 30.169034406215324,
        "tAvgHot": 24.10729166666668
    },
    {
        "cityName": "Zhengzhou, CH",
        "stationId": "GHCND:CHM00057083",
        "lat": 34.717,
        "lon": 113.65,
        "tMin": -3.544816053511704,
        "tAvgCold": 0.7104058272632667,
        "tMax": 32.03621262458473,
        "tAvgHot": 27.414568158168613
    },
    {
        "cityName": "'s-Hertogenbosch, NL",
        "stationId": "GHCND:NLE00152482",
        "lat": 51.8578,
        "lon": 5.1453,
        "tMin": 0.19736111111111102,
        "tMax": 5.847637292464876
    },
    {
        "cityName": "Abidjan, IV",
        "stationId": "GHCND:IVM00065578",
        "lat": 5.261,
        "lon": -3.926,
        "tMin": 22.363047001620732,
        "tMax": 32.33903903903903,
        "tAvgCold": 24.559302325581385,
        "tAvgHot": 28.32516556291391
    },
    {
        "cityName": "Acapulco, MX",
        "stationId": "GHCND:MXM00076805",
        "lat": 16.833,
        "lon": -99.933,
        "tMin": 20.549503311258253,
        "tMax": 34.07258805513017,
        "tAvgCold": 26.500139664804426,
        "tAvgHot": 29.18979591836736
    },
    {
        "cityName": "Agartala, IN",
        "stationId": "GHCND:IN021010100",
        "lat": 23.883,
        "lon": 91.25,
        "tMin": 10.14505649717514,
        "tMax": 32.47003792667508,
        "tAvgCold": 17.389989235737342,
        "tAvgHot": 28.355951056729708
    },
    {
        "cityName": "Aguascalientes, MX",
        "stationId": "GHCND:MX000001018",
        "lat": 22.13,
        "lon": -102.43,
        "tMin": 4.115023474178404,
        "tMax": 21.217281105990782
    },
    {
        "cityName": "Ahmadabad, IN",
        "stationId": "GHCND:IN005010600",
        "lat": 23.067,
        "lon": 72.633,
        "tMin": 12.135499207606966,
        "tMax": 41.66472148541117,
        "tAvgCold": 19.834696016771495,
        "tAvgHot": 33.73865546218483
    },
    {
        "cityName": "Ahvaz, IR",
        "stationId": "GHCND:IRM00040811",
        "lat": 31.337,
        "lon": 48.762,
        "tMin": 7.044252873563212,
        "tMax": 46.85863746958638,
        "tAvgCold": 12.503880983182405,
        "tAvgHot": 38.2947969543147
    },
    {
        "cityName": "Aktyubinsk, KZ",
        "stationId": "GHCND:KZ000035229",
        "lat": 50.2831,
        "lon": 57.15,
        "tMin": -16.41606905710491,
        "tMax": 29.79003322259131,
        "tAvgCold": -12.768054110301778,
        "tAvgHot": 22.6315296566077
    },
    {
        "cityName": "Al Basrah, IZ",
        "stationId": "GHCND:IRM00040831",
        "lat": 30.371,
        "lon": 48.228,
        "tMin": 7.258461538461533,
        "tMax": 47.05073529411762,
        "tAvgCold": 12.568428372739914,
        "tAvgHot": 37.60614152202936
    },
    {
        "cityName": "Al Mafraq, JO",
        "stationId": "GHCND:JOM00040265",
        "lat": 32.356,
        "lon": 36.259,
        "tMin": 2.0265306122448994,
        "tMax": 33.88748043818468,
        "tAvgCold": 7.668063420158562,
        "tAvgHot": 25.560216346153872
    },
    {
        "cityName": "Almaty, KZ",
        "stationId": "GHCND:KZ000036870",
        "lat": 43.2331,
        "lon": 76.9331,
        "tMin": -8.401517241379302,
        "tMax": 30.0486215538847,
        "tAvgCold": -5.533610822060346,
        "tAvgHot": 23.96937499999997
    },
    {
        "cityName": "Ambon, ID",
        "stationId": "GHCND:ID000097724",
        "lat": -3.7,
        "lon": 128.083,
        "tMin": 22.628723404255332,
        "tMax": 31.779846449136283,
        "tAvgCold": 25.174393530997325,
        "tAvgHot": 27.47568306010929
    },
    {
        "cityName": "Amritsar, IN",
        "stationId": "GHCND:INM00042071",
        "lat": 31.71,
        "lon": 74.797,
        "tMin": 3.0692307692307716,
        "tMax": 39.947727272727235,
        "tAvgCold": 10.85618729096991,
        "tAvgHot": 32.225686977299844
    },
    {
        "cityName": "Amsterdam, NL",
        "stationId": "GHCND:NLE00152485",
        "lat": 52.3156,
        "lon": 4.7903,
        "tMin": 0.6526857142857143,
        "tMax": 5.826118626430798
    },
    {
        "cityName": "Antananarivo, MA",
        "stationId": "GHCND:MA000067083",
        "lat": -18.8,
        "lon": 47.483,
        "tMin": 9.35017793594307,
        "tMax": 27.774900398406412,
        "tAvgCold": 14.647141316073354,
        "tAvgHot": 21.327645051194555
    },
    {
        "cityName": "Antsiranana, MA",
        "stationId": "GHCND:MA000067009",
        "lat": -12.35,
        "lon": 49.3,
        "tMin": 19.347842170160302,
        "tMax": 32.721219822109255,
        "tAvgCold": 24.59654788418705,
        "tAvgHot": 27.76650943396229
    },
    {
        "cityName": "Aomori, JA",
        "stationId": "GHCND:JA000047575",
        "lat": 40.817,
        "lon": 140.767,
        "tMin": -4.407079646017705,
        "tMax": 27.859500542888142,
        "tAvgCold": -1.238229166666667,
        "tAvgHot": 23.40020811654533
    },
    {
        "cityName": "Arak, IR",
        "stationId": "GHCND:IRM00040769",
        "lat": 34.138,
        "lon": 49.847,
        "tMin": -6.543243243243247,
        "tMax": 35.79168443496806,
        "tAvgCold": -1.0863813229571992,
        "tAvgHot": 28.01047979797976
    },
    {
        "cityName": "Arequipa, PE",
        "stationId": "GHCND:PE000084752",
        "lat": -16.332,
        "lon": -71.567,
        "tMin": 6.843289473684215,
        "tMax": 22.252467105263168,
        "tAvgCold": 13.770267379679149,
        "tAvgHot": 15.220915032679725
    },
    {
        "cityName": "Arnhem, NL",
        "stationId": "GHCND:NLE00141789",
        "lat": 51.9667,
        "lon": 5.6331,
        "tMin": -0.07354430379746761,
        "tMax": 5.313947990543737
    },
    {
        "cityName": "Assen, NL",
        "stationId": "GHCND:NLE00152470",
        "lat": 53.1233,
        "lon": 6.5844,
        "tMin": -0.42537142857142757,
        "tMax": 4.800000000000007
    },
    {
        "cityName": "Astana, KZ",
        "stationId": "GHCND:KZ000035188",
        "lat": 51.1331,
        "lon": 71.3667,
        "tMin": -17.893294460641407,
        "tMax": 26.60609613130128,
        "tAvgCold": -15.210926118626437,
        "tAvgHot": 20.431737773152975
    },
    {
        "cityName": "Asuncion, PA",
        "stationId": "GHCND:PAM00086218",
        "lat": -25.24,
        "lon": -57.519,
        "tMin": 12.462717219589269,
        "tMax": 35.05893271461715,
        "tAvgCold": 17.618834547346502,
        "tAvgHot": 27.951354166666686
    },
    {
        "cityName": "Athens, GR",
        "stationId": "GHCND:GRE00105246",
        "lat": 38.3167,
        "lon": 23.5331,
        "tMin": 3.3090265486725676,
        "tMax": 11.389516129032256
    },
    {
        "cityName": "Atyrau, KZ",
        "stationId": "GHCND:KZ000035700",
        "lat": 47.1167,
        "lon": 51.9167,
        "tMin": -9.636483253588521,
        "tMax": 33.23899895724714,
        "tAvgCold": -6.7414151925077945,
        "tAvgHot": 26.805937500000038
    },
    {
        "cityName": "Ayacucho, PE",
        "stationId": "GHCND:PEM00084673",
        "lat": -13.155,
        "lon": -74.204,
        "tMin": 6.370612244897965,
        "tMax": 27.194736842105264,
        "tAvgCold": 16.669034608378876,
        "tAvgHot": 20.412937062937036
    },
    {
        "cityName": "Az Zarqa', JO",
        "stationId": "GHCND:JOM00040265",
        "lat": 32.356,
        "lon": 36.259,
        "tMin": 2.0265306122448994,
        "tMax": 33.88748043818468,
        "tAvgCold": 7.668063420158562,
        "tAvgHot": 25.560216346153865
    },
    {
        "cityName": "Balikpapan, ID",
        "stationId": "GHCND:IDM00096633",
        "lat": -1.268,
        "lon": 116.894,
        "tMin": 23.852020202020203,
        "tMax": 31.201682242990643,
        "tAvgCold": 27.10933503836318,
        "tAvgHot": 27.905966587112182
    },
    {
        "cityName": "Bamako, ML",
        "stationId": "GHCND:MLM00061291",
        "lat": 12.534,
        "lon": -7.95,
        "tMin": 17.47415730337079,
        "tMax": 39.34245562130179,
        "tAvgCold": 24.72618796198523,
        "tAvgHot": 32.4703141928494
    },
    {
        "cityName": "Banda Aceh, ID",
        "stationId": "GHCND:IDM00096011",
        "lat": 5.524,
        "lon": 95.42,
        "tMin": 22.355419847328264,
        "tMax": 33.35812883435586,
        "tAvgCold": 26.385503685503696,
        "tAvgHot": 28.187844611528824
    },
    {
        "cityName": "Bandjermasin, ID",
        "stationId": "GHCND:IDM00096685",
        "lat": -3.442,
        "lon": 114.763,
        "tMin": 23.55320088300224,
        "tMax": 33.64479166666667,
        "tAvgCold": 26.89717362045761,
        "tAvgHot": 27.941561712846365
    },
    {
        "cityName": "Bangalore, IN",
        "stationId": "GHCND:IN009010100",
        "lat": 12.967,
        "lon": 77.583,
        "tMin": 16.17836477987421,
        "tMax": 34.11645714285719,
        "tAvgCold": 20.84663865546215,
        "tAvgHot": 27.332866379310342
    },
    {
        "cityName": "Banska Bystrica, LO",
        "stationId": "GHCND:LOM00011903",
        "lat": 48.65,
        "lon": 19.15,
        "tMin": -6.57967599410898,
        "tMax": 26.93018259935555,
        "tAvgCold": -2.779375000000002,
        "tAvgHot": 19.704266389177917
    },
    {
        "cityName": "Beersheba, IS",
        "stationId": "GHCND:IS000051690",
        "lat": 31.25,
        "lon": 34.8164,
        "tMin": 6.927789473684211,
        "tMax": 34.561498439125934,
        "tAvgCold": 11.940837696335079,
        "tAvgHot": 26.524615384615377
    },
    {
        "cityName": "Beira, MZ",
        "stationId": "GHCND:MZ000067297",
        "lat": -19.8,
        "lon": 34.9,
        "tMin": 16.45329949238576,
        "tMax": 31.571619047619045,
        "tAvgCold": 21.10776699029128,
        "tAvgHot": 28.23328748280607
    },
    {
        "cityName": "Beirut, LE",
        "stationId": "GHCND:LEM00040101",
        "lat": 33.817,
        "lon": 35.85,
        "tMin": 2.1812236286919857,
        "tMax": 34.01420560747663,
        "tAvgCold": 6.665614617940201,
        "tAvgHot": 26.478224455611404
    },
    {
        "cityName": "Benghazi, LY",
        "stationId": "GHCND:LYE00147747",
        "lat": 32.08,
        "lon": 20.27,
        "tMin": 9.055275229357798,
        "tMax": 31.630994152046803,
        "tAvgCold": 12.870101925254815,
        "tAvgHot": 26.996274738067545
    },
    {
        "cityName": "Bengkulu, ID",
        "stationId": "GHCND:IDM00096253",
        "lat": -3.864,
        "lon": 102.339,
        "tMin": 22.845962732919276,
        "tMax": 31.816871704745154,
        "tAvgCold": 26.382637075718023,
        "tAvgHot": 27.391927083333368
    },
    {
        "cityName": "Bhopal, IN",
        "stationId": "GHCND:IN011351500",
        "lat": 23.283,
        "lon": 77.35,
        "tMin": 10.428516129032245,
        "tMax": 41.013179190751444,
        "tAvgCold": 17.647553191489365,
        "tAvgHot": 33.71404255319148
    },
    {
        "cityName": "Bhubaneshwar, IN",
        "stationId": "GHCND:IN017111200",
        "lat": 20.25,
        "lon": 85.833,
        "tMin": 15.302135678391975,
        "tMax": 37.67437641723348,
        "tAvgCold": 21.524264705882352,
        "tAvgHot": 31.152848101265832
    },
    {
        "cityName": "Bishkek, KG",
        "stationId": "GHCND:KG000038353",
        "lat": 42.83,
        "lon": 74.58,
        "tMin": -7.842443729903543,
        "tMax": 32.24550408719344,
        "tAvgCold": -2.6980769230769273,
        "tAvgHot": 25.255329341317367
    },
    {
        "cityName": "Blantyre, MI",
        "stationId": "GHCND:MI000067693",
        "lat": -15.683,
        "lon": 34.967,
        "tMin": 13.862841530054645,
        "tMax": 31.466666666666672,
        "tAvgCold": 19.883544303797457,
        "tAvgHot": 26.800000000000008
    },
    {
        "cityName": "Bondoukou, IV",
        "stationId": "GHCND:IVM00065545",
        "lat": 8.05,
        "lon": -2.783,
        "tMin": 21.2887737478411,
        "tMax": 35.26160583941604,
        "tAvgCold": 24.303142076502724,
        "tAvgHot": 28.840767386091123
    },
    {
        "cityName": "Bouake, IV",
        "stationId": "GHCND:IV000005555",
        "lat": 7.68,
        "lon": -5.03,
        "tMin": 20.885835694050982,
        "tMax": 34.34180790960453,
        "tAvgCold": 24.066515837104053,
        "tAvgHot": 28.591646778042936
    },
    {
        "cityName": "Budapest, HU",
        "stationId": "GHCND:HUE00100247",
        "lat": 47.5108,
        "lon": 19.0206,
        "tMin": -1.316753381893857,
        "tMax": 3.6888657648283014
    },
    {
        "cityName": "Cagliari, IT",
        "stationId": "GHCND:ITM00016546",
        "lat": 39.354,
        "lon": 8.972,
        "tMin": 4.6601626016260145,
        "tMax": 33.464761904761936,
        "tAvgCold": 9.72055674518201,
        "tAvgHot": 27.07659574468083
    },
    {
        "cityName": "Cajamarca, PE",
        "stationId": "GHCND:PEM00084472",
        "lat": -7.139,
        "lon": -78.489,
        "tMin": 3.239908256880735,
        "tMax": 22.38901098901098,
        "tAvgCold": 14.882283464566937,
        "tAvgHot": 15.832521739130417
    },
    {
        "cityName": "Callao, PE",
        "stationId": "GHCND:PEM00084628",
        "lat": -12.022,
        "lon": -77.114,
        "tMin": 15.323397435897414,
        "tMax": 27.901247401247414,
        "tAvgCold": 16.6459375,
        "tAvgHot": 23.357502863688424
    },
    {
        "cityName": "Campeche, MX",
        "stationId": "GHCND:MXM00076695",
        "lat": 19.817,
        "lon": -90.5,
        "tMin": 17.08649999999999,
        "tMax": 36.81977272727276,
        "tAvgCold": 23.85190839694659,
        "tAvgHot": 29.33043478260871
    },
    {
        "cityName": "Campobasso, IT",
        "stationId": "GHCND:ITM00016252",
        "lat": 41.567,
        "lon": 14.65,
        "tMin": 1.884095860566447,
        "tMax": 27.895541401273928,
        "tAvgCold": 4.261909758656871,
        "tAvgHot": 22.603878406708624
    },
    {
        "cityName": "Casablanca, MO",
        "stationId": "GHCND:MOM00060155",
        "lat": 33.557,
        "lon": -7.66,
        "tMin": 8.667563291139242,
        "tMax": 26.5071878940732,
        "tAvgCold": 12.904144527098822,
        "tAvgHot": 23.40433403805497
    },
    {
        "cityName": "Ch'unch'on, KS",
        "stationId": "GHCND:KSM00047101",
        "lat": 37.9,
        "lon": 127.733,
        "tMin": -11.028070175438598,
        "tMax": 29.912184412733243,
        "tAvgCold": -4.363437500000001,
        "tAvgHot": 24.74129301355581
    },
    {
        "cityName": "Ch'ungju, KS",
        "stationId": "GHCND:KSM00047133",
        "lat": 36.3,
        "lon": 127.4,
        "tMin": -6.961663286004056,
        "tMax": 30.255865272938447,
        "tAvgCold": -1.4646874999999997,
        "tAvgHot": 25.53072916666667
    },
    {
        "cityName": "Cheju, KS",
        "stationId": "GHCND:KSM00047184",
        "lat": 33.517,
        "lon": 126.533,
        "tMin": 2.8083844580777106,
        "tMax": 29.89867256637168,
        "tAvgCold": 5.884479166666673,
        "tAvgHot": 26.76308654848802
    },
    {
        "cityName": "Chennai, IN",
        "stationId": "GHCND:IN020040900",
        "lat": 13,
        "lon": 80.183,
        "tMin": 20.67859237536656,
        "tMax": 38.41809851088199,
        "tAvgCold": 24.830052356020893,
        "tAvgHot": 31.68866736621195
    },
    {
        "cityName": "Chetumal, MX",
        "stationId": "GHCND:MXM00076750",
        "lat": 18.505,
        "lon": -88.327,
        "tMin": 18.490962099125362,
        "tMax": 34.395467422096274,
        "tAvgCold": 24.509594882729232,
        "tAvgHot": 29.12872117400416
    },
    {
        "cityName": "Chiclayo, PE",
        "stationId": "GHCND:PEM00084452",
        "lat": -6.787,
        "lon": -79.828,
        "tMin": 16.12421203438396,
        "tMax": 31.829694323144082,
        "tAvgCold": 19.072990353697723,
        "tAvgHot": 25.451648351648345
    },
    {
        "cityName": "Chihuahua, MX",
        "stationId": "GHCND:MXM00076225",
        "lat": 28.633,
        "lon": -106.083,
        "tMin": 1.2746300211416486,
        "tMax": 35.61902912621362,
        "tAvgCold": 10.39353562005278,
        "tAvgHot": 27.939617834394912
    },
    {
        "cityName": "Chilpancingo De Los Bravo, MX",
        "stationId": "GHCND:MXM00076762",
        "lat": 17.55,
        "lon": -99.5,
        "tMin": 11.584642233856906,
        "tMax": 32.80437062937059,
        "tAvgCold": 20.388873994638086,
        "tAvgHot": 24.339866666666648
    },
    {
        "cityName": "Chimoio, MZ",
        "stationId": "GHCND:MZ000067295",
        "lat": -19.117,
        "lon": 33.467,
        "tMin": 11.654203539823012,
        "tMax": 29.50769230769231,
        "tAvgCold": 17.927789046653132,
        "tAvgHot": 24.670286885245886
    },
    {
        "cityName": "Chisinau, MD",
        "stationId": "GHCND:MD000033815",
        "lat": 47.02,
        "lon": 28.87,
        "tMin": -4.622961956521737,
        "tMax": 28.080042918454954,
        "tAvgCold": -1.9951322751322769,
        "tAvgHot": 22.619479166666654
    },
    {
        "cityName": "Christchurch, NZ",
        "stationId": "GHCND:NZM00093781",
        "lat": -43.489,
        "lon": 172.532,
        "tMin": -0.3063348416289591,
        "tMax": 23.54709090909092,
        "tAvgCold": 5.824400417101145,
        "tAvgHot": 16.591431556948788
    },
    {
        "cityName": "Ciudad Victoria, MX",
        "stationId": "GHCND:MX000028116",
        "lat": 23.733,
        "lon": -99.133,
        "tMin": 10.196485623003191,
        "tMax": 36.71621271076525,
        "tAvgCold": 16.33498694516971,
        "tAvgHot": 29.174404015056457
    },
    {
        "cityName": "Colima, MX",
        "stationId": "GHCND:MXM00076658",
        "lat": 19.277,
        "lon": -103.577,
        "tMin": 15.964772727272718,
        "tMax": 35.5813513513513,
        "tAvgCold": 21.55270805812416,
        "tAvgHot": 25.14993968636909
    },
    {
        "cityName": "Conakry, GV",
        "stationId": "GHCND:GV000001832",
        "lat": 9.57,
        "lon": -13.62,
        "tMin": 23.2675,
        "tMax": 31.908644859813084,
        "tAvgCold": 25.858074534161506,
        "tAvgHot": 28.52326869806098
    },
    {
        "cityName": "Cuernavaca, MX",
        "stationId": "GHCND:MX000017004",
        "lat": 18.883,
        "lon": -99.233,
        "tMin": 11.364492753623173,
        "tMax": 33.37061068702289,
        "tAvgCold": 21.498726114649706,
        "tAvgHot": 26.84373401534526
    },
    {
        "cityName": "Culiacan, MX",
        "stationId": "GHCND:MX000025081",
        "lat": 24.8,
        "lon": -107.15,
        "tMin": 8.83407960199005,
        "tMax": 28.919354838709676
    },
    {
        "cityName": "Cuzco, PE",
        "stationId": "GHCND:PEM00084686",
        "lat": -13.536,
        "lon": -71.939,
        "tMin": 0.7986522911051198,
        "tMax": 22.145523809523823,
        "tAvgCold": 9.971220020855055,
        "tAvgHot": 13.6448051948052
    },
    {
        "cityName": "Daloa, IV",
        "stationId": "GHCND:IVM00065560",
        "lat": 6.793,
        "lon": -6.473,
        "tMin": 21.207859531772552,
        "tMax": 35.02150000000002,
        "tAvgCold": 24.650647668393795,
        "tAvgHot": 27.794436519258195
    },
    {
        "cityName": "Debrecen, HU",
        "stationId": "GHCND:HUE00152440",
        "lat": 47.4903,
        "lon": 21.6106,
        "tMin": -3.7845993756503624,
        "tMax": 2.0667013527575437
    },
    {
        "cityName": "Delhi, IN",
        "stationId": "GHCND:IN022021900",
        "lat": 28.583,
        "lon": 77.2,
        "tMin": 7.304492939666236,
        "tMax": 38.98065984072803,
        "tAvgCold": 13.341361256544497,
        "tAvgHot": 33.130685527747545
    },
    {
        "cityName": "Denpasar, ID",
        "stationId": "GHCND:IDM00097230",
        "lat": -8.749,
        "lon": 115.167,
        "tMin": 23.399537037037064,
        "tMax": 31.674696356275305,
        "tAvgCold": 26.329484304932706,
        "tAvgHot": 28.194585253456218
    },
    {
        "cityName": "Dimbokro, IV",
        "stationId": "GHCND:IV000005562",
        "lat": 6.65,
        "lon": -4.7,
        "tMin": 21.96303999999998,
        "tMax": 36.64035369774917,
        "tAvgCold": 26.045265888456548,
        "tAvgHot": 29.358432934926974
    },
    {
        "cityName": "Drammen, NO",
        "stationId": "GHCND:NOE00109885",
        "lat": 59.8558,
        "lon": 10.4367,
        "tMin": -5.423725286160247,
        "tMax": -0.4126951092611866
    },
    {
        "cityName": "Durango, MX",
        "stationId": "GHCND:MX000010023",
        "lat": 23.95,
        "lon": -104.73,
        "tMin": 2.711111111111111,
        "tMax": 20.346774193548388
    },
    {
        "cityName": "Dzhambul, KZ",
        "stationId": "GHCND:KZ000038341",
        "lat": 42.85,
        "lon": 71.383,
        "tMin": -8.489001692047383,
        "tMax": 32.806588735387855,
        "tAvgCold": -3.1842767295597514,
        "tAvgHot": 25.37109947643977
    },
    {
        "cityName": "Encarnacion, PA",
        "stationId": "GHCND:ARM00087178",
        "lat": -27.386,
        "lon": -55.971,
        "tMin": 11.01923076923076,
        "tMax": 34.12686567164178,
        "tAvgCold": 16.176041666666638,
        "tAvgHot": 27.16492146596857
    },
    {
        "cityName": "Esfahan, IR",
        "stationId": "GHCND:IRM00040800",
        "lat": 32.751,
        "lon": 51.862,
        "tMin": -3.488135593220339,
        "tMax": 37.79455587392553,
        "tAvgCold": 2.250539291217256,
        "tAvgHot": 29.845223880597008
    },
    {
        "cityName": "Fianarantsoa, MA",
        "stationId": "GHCND:MAM00067137",
        "lat": -21.442,
        "lon": 47.112,
        "tMin": 10.600307692307691,
        "tMax": 27.544364161849753,
        "tAvgCold": 14.96424581005586,
        "tAvgHot": 21.99309428950863
    },
    {
        "cityName": "Fort-De-France, MB",
        "stationId": "GHCND:MBM00078925",
        "lat": 14.591,
        "lon": -61.003,
        "tMin": 21.420813008130075,
        "tMax": 31.121677215189848,
        "tAvgCold": 25.027377892030852,
        "tAvgHot": 27.52051282051286
    },
    {
        "cityName": "Fukuoka, JA",
        "stationId": "GHCND:JA000047807",
        "lat": 33.583,
        "lon": 130.383,
        "tMin": 3.2859861591695525,
        "tMax": 32.23886509635975,
        "tAvgCold": 6.73104166666666,
        "tAvgHot": 28.115192507804384
    },
    {
        "cityName": "Gagnoa, IV",
        "stationId": "GHCND:IV000005557",
        "lat": 6.13,
        "lon": -5.95,
        "tMin": 21.503062787136315,
        "tMax": 34.97934959349595,
        "tAvgCold": 24.79254658385092,
        "tAvgHot": 27.6592
    },
    {
        "cityName": "Georgetown, GY",
        "stationId": "GHCND:GYM00081001",
        "lat": 6.8,
        "lon": -58.15,
        "tMin": 23.619491525423744,
        "tMax": 31.964393939393933,
        "tAvgCold": 27.512751677852354,
        "tAvgHot": 29.80884955752213
    },
    {
        "cityName": "Gifu, JA",
        "stationId": "GHCND:JA000047632",
        "lat": 35.4,
        "lon": 136.767,
        "tMin": 0.04938271604938271,
        "tMax": 33.18906605922552,
        "tAvgCold": 4.466935483870973,
        "tAvgHot": 28.100921052631545
    },
    {
        "cityName": "Groningen, NL",
        "stationId": "GHCND:NLE00152470",
        "lat": 53.1233,
        "lon": 6.5844,
        "tMin": -0.42537142857142785,
        "tMax": 4.800000000000007
    },
    {
        "cityName": "Guadalajara, MX",
        "stationId": "GHCND:MX000014040",
        "lat": 20.3,
        "lon": -103.2,
        "tMin": 10.869727047146402,
        "tMax": 23.509925558312656
    },
    {
        "cityName": "Guanajuato, MX",
        "stationId": "GHCND:MX000076577",
        "lat": 21,
        "lon": -101.283,
        "tMin": 6.543039999999997,
        "tMax": 31.408734177215177,
        "tAvgCold": 14.508680947012406,
        "tAvgHot": 22.280201342281877
    },
    {
        "cityName": "Haarlem, NL",
        "stationId": "GHCND:NLE00152485",
        "lat": 52.3156,
        "lon": 4.7903,
        "tMin": 0.6526857142857144,
        "tMax": 5.8261186264308
    },
    {
        "cityName": "Haeju, KN",
        "stationId": "GHCND:KNM00047069",
        "lat": 38.033,
        "lon": 125.7,
        "tMin": -7.388115449915112,
        "tMax": 28.920138888888918,
        "tAvgCold": -3.1165437302423604,
        "tAvgHot": 24.986552828175032
    },
    {
        "cityName": "Hermosillo, MX",
        "stationId": "GHCND:MX000026032",
        "lat": 29.23,
        "lon": -110.72,
        "tMin": 4.668347338935574,
        "tMax": 25.106182795698924
    },
    {
        "cityName": "Hyderabad, IN",
        "stationId": "GHCND:IN001080500",
        "lat": 17.45,
        "lon": 78.47,
        "tMin": 14.961258741258746,
        "tMax": 39.704744069912564,
        "tAvgCold": 22.333891213389116,
        "tAvgHot": 33.05930599369086
    },
    {
        "cityName": "Hyesan, KN",
        "stationId": "GHCND:KNM00047016",
        "lat": 41.4,
        "lon": 128.167,
        "tMin": -23.861986301369875,
        "tMax": 27.283922462941817,
        "tAvgCold": -16.136084656084652,
        "tAvgHot": 20.79978678038377
    },