[
  {
    "cityName": "Abeche, CD",
    "stationId": "GHCND:CD000004756",
    "lat": 13.85,
    "lon": 20.85,
    "tMin": 16.46563706563705,
    "tAvgCold": 27.49413680781758,
    "tMax": 40.769999999999996,
    "tAvgHot": 36.57658227848101
  },
  {
    "cityName": "Abomey, BN",
    "stationId": "GHCND:BNM00065338",
    "lat": 7.167,
    "lon": 2.067,
    "tMin": 22.127685950413223,
    "tAvgCold": 24.958301647655258,
    "tMax": 36.218013245033106,
    "tAvgHot": 28.980503144654108
  },
  {
    "cityName": "Abu Dhabi, AE",
    "stationId": "GHCND:AEM00041217",
    "lat": 24.433,
    "lon": 54.651,
    "tMin": 12.908005822416328,
    "tAvgCold": 18.723092998955053,
    "tMax": 43.16992574257427,
    "tAvgHot": 35.55785639958376
  },
  {
    "cityName": "Accra, GH",
    "stationId": "GHCND:GHM00065472",
    "lat": 5.605,
    "lon": -0.167,
    "tMin": 22.755269320843087,
    "tAvgCold": 25.199740932642513,
    "tMax": 33.2375366568915,
    "tAvgHot": 28.91460674157306
  },
  {
    "cityName": "Ajaccio, FR",
    "stationId": "GHCND:FRE00106209",
    "lat": 41.9181,
    "lon": 8.7928,
    "tMin": 4.465764828303849,
    "tAvgCold": 8.664375000000005,
    "tMax": 28.959001040582727,
    "tAvgHot": 23.739438085327766
  },
  {
    "cityName": "Ajman, AE",
    "stationId": "GHCND:AEM00041194",
    "lat": 25.255,
    "lon": 55.364,
    "tMin": 14.599847792998489,
    "tAvgCold": 19.40397074190178,
    "tMax": 41.59828641370868,
    "tAvgHot": 35.48876170655568
  },
  {
    "cityName": "Al-Muharraq, BA",
    "stationId": "GHCND:BA000041150",
    "lat": 26.267,
    "lon": 50.65,
    "tMin": 13.970270270270266,
    "tAvgCold": 17.08321013727561,
    "tMax": 39.30535248041782,
    "tAvgHot": 34.816753381893854
  },
  {
    "cityName": "Alborg, DA",
    "stationId": "GHCND:DAM00006030",
    "lat": 57.093,
    "lon": 9.849,
    "tMin": -2.152323580034426,
    "tAvgCold": 0.8622523461939524,
    "tMax": 21.520097442143737,
    "tAvgHot": 16.848595213319438
  },
  {
    "cityName": "Alexandria, EG",
    "stationId": "GHCND:EGM00062318",
    "lat": 31.184,
    "lon": 29.949,
    "tMin": 8.957996485061518,
    "tAvgCold": 13.963645833333333,
    "tMax": 30.847222222222292,
    "tAvgHot": 27.385729166666653
  },
  {
    "cityName": "Algiers, AG",
    "stationId": "GHCND:AG000060390",
    "lat": 36.7167,
    "lon": 3.25,
    "tMin": 5.4109686609686625,
    "tAvgCold": 10.759414225941429,
    "tMax": 32.79964157706088,
    "tAvgHot": 26.418456725755984
  },
  {
    "cityName": "Annaba, AG",
    "stationId": "GHCND:AGM00060360",
    "lat": 36.822,
    "lon": 7.809,
    "tMin": 6.456594323873125,
    "tAvgCold": 11.204602510460251,
    "tMax": 31.633251231527108,
    "tAvgHot": 26.011795407098152
  },
  {
    "cityName": "Antofagasta, CI",
    "stationId": "GHCND:CI000085442",
    "lat": -23.433,
    "lon": -70.45,
    "tMin": 11.412552301255218,
    "tAvgCold": 13.823333333333325,
    "tMax": 23.642037302726,
    "tAvgHot": 20.107291666666672
  },
  {
    "cityName": "Arauca, CO",
    "stationId": "GHCND:VEM00080448",
    "lat": 7.211,
    "lon": -70.756,
    "tMin": 22.499593495934977,
    "tAvgCold": 26.049753694581277,
    "tMax": 35.130630630630634,
    "tAvgHot": 29.065742251223554
  },
  {
    "cityName": "Armenia, CO",
    "stationId": "GHCND:COM00080211",
    "lat": 4.453,
    "lon": -75.766,
    "tMin": 17.419473684210534,
    "tAvgCold": 22.354642857142853,
    "tMax": 29.929032258064517,
    "tAvgHot": 23.5148148148148
  },
  {
    "cityName": "Aswan, EG",
    "stationId": "GHCND:EG000062414",
    "lat": 23.9667,
    "lon": 32.7831,
    "tMin": 9.832909604519772,
    "tAvgCold": 16.404999999999994,
    "tMax": 41.57666248431622,
    "tAvgHot": 34.879893048128295
  },
  {
    "cityName": "Bahia Blanca, AR",
    "stationId": "GHCND:AR000877500",
    "lat": -38.733,
    "lon": -62.167,
    "tMin": 2.108571428571428,
    "tAvgCold": 7.8883891213389115,
    "tMax": 31.40309677419355,
    "tAvgHot": 23.570413573700932
  },
  {
    "cityName": "Bandar Seri Begawan, BX",
    "stationId": "GHCND:BXM00096315",
    "lat": 4.944,
    "lon": 114.928,
    "tMin": 23.62912801484231,
    "tAvgCold": 26.880402542372874,
    "tMax": 32.82447761194033,
    "tAvgHot": 28.004817987152045
  },
  {
    "cityName": "Bangui, CT",
    "stationId": "GHCND:CTM00064650",
    "lat": 4.398,
    "lon": 18.519,
    "tMin": 21.048931116389554,
    "tAvgCold": 25.00052424639581,
    "tMax": 34.62780172413794,
    "tAvgHot": 27.60947503201023
  },
  {
    "cityName": "Barisal, BG",
    "stationId": "GHCND:BGM00041950",
    "lat": 22.75,
    "lon": 90.367,
    "tMin": 12.502325581395349,
    "tAvgCold": 17.783391003460203,
    "tMax": 33.80675675675677,
    "tAvgHot": 29.01464968152867
  },
  {
    "cityName": "Barranquilla, CO",
    "stationId": "GHCND:COM00080028",
    "lat": 10.89,
    "lon": -74.781,
    "tMin": 23.60073937153418,
    "tAvgCold": 26.93326203208556,
    "tMax": 33.99628647214854,
    "tAvgHot": 28.315960912052077
  },
  {
    "cityName": "Bat'umi, GG",
    "stationId": "GHCND:GG000037484",
    "lat": 41.633,
    "lon": 41.6,
    "tMin": 3.1980066445182715,
    "tAvgCold": 6.897759999999998,
    "tMax": 26.849806949806965,
    "tAvgHot": 23.81115485564307
  },
  {
    "cityName": "Batna, AG",
    "stationId": "GHCND:AGM00060468",
    "lat": 35.55,
    "lon": 6.183,
    "tMin": -0.018353344768439094,
    "tAvgCold": 5.699306358381501,
    "tMax": 35.44954128440367,
    "tAvgHot": 26.97719101123593
  },
  {
    "cityName": "Bechar, AG",
    "stationId": "GHCND:AGM00060571",
    "lat": 31.646,
    "lon": -2.27,
    "tMin": 3.248553054662378,
    "tAvgCold": 9.589596602972385,
    "tMax": 40.482120051085595,
    "tAvgHot": 34.49342379958246
  },
  {
    "cityName": "Beijing, CH",
    "stationId": "GHCND:CHM00054511",
    "lat": 39.933,
    "lon": 116.283,
    "tMin": -7.325056689342395,
    "tAvgCold": -2.9792924037460984,
    "tMax": 31.399434389140264,
    "tAvgHot": 26.806971904266454
  },
  {
    "cityName": "Bejaia, AG",
    "stationId": "GHCND:AGM00060402",
    "lat": 36.712,
    "lon": 5.07,
    "tMin": 7.1557723577235794,
    "tAvgCold": 11.214696132596675,
    "tMax": 30.648409893992927,
    "tAvgHot": 25.866736621196242
  },
  {
    "cityName": "Belem, BR",
    "stationId": "GHCND:BRM00082193",
    "lat": -1.379,
    "lon": -48.476,
    "tMin": 23.757142857142842,
    "tAvgCold": 26.050753186558502,
    "tMax": 32.45436046511632,
    "tAvgHot": 27.387648970747613
  },
  {
    "cityName": "Belize, BH",
    "stationId": "GHCND:BHM00078583",
    "lat": 17.539,
    "lon": -88.308,
    "tMin": 19.9212918660287,
    "tAvgCold": 24.488740920096845,
    "tMax": 31.952985074626845,
    "tAvgHot": 28.978544542032637
  },
  {
    "cityName": "Belo Horizonte, BR",
    "stationId": "GHCND:BRM00083566",
    "lat": -19.833,
    "lon": -43.917,
    "tMin": 12.75999999999999,
    "tAvgCold": 17.950282485875704,
    "tMax": 28.540880503144667,
    "tAvgHot": 22.768789808917195
  },
  {
    "cityName": "Berberati, CT",
    "stationId": "GHCND:CT000004600",
    "lat": 4.22,
    "lon": 15.78,
    "tMin": 17.186727688787187,
    "tAvgCold": 23.41895551257254,
    "tMax": 32.86474820143888,
    "tAvgHot": 25.822580645161292
  },
  {
    "cityName": "Bogota, CO",
    "stationId": "GHCND:CO000080222",
    "lat": 4.701,
    "lon": -74.15,
    "tMin": 6.112176165803114,
    "tAvgCold": 12.963375796178358,
    "tMax": 19.471052631578935,
    "tAvgHot": 13.886339937434823
  },
  {
    "cityName": "Brazzaville, CF",
    "stationId": "GHCND:CF000004450",
    "lat": -4.25,
    "lon": 15.25,
    "tMin": 19.055032119914348,
    "tAvgCold": 23.040589569161,
    "tMax": 32.470709382151085,
    "tAvgHot": 26.61380510440832
  },
  {
    "cityName": "Brest, BO",
    "stationId": "GHCND:BOM00033008",
    "lat": 52.1167,
    "lon": 23.6831,
    "tMin": -4.799208443271769,
    "tAvgCold": -2.685535900104058,
    "tMax": 25.26050054406966,
    "tAvgHot": 19.606763787721118
  },
  {
    "cityName": "Brest, FR",
    "stationId": "GHCND:FRE00104484",
    "lat": 48.4442,
    "lon": -4.4117,
    "tMin": 4.148685714285714,
    "tAvgCold": 6.759101382488484,
    "tMax": 20.710405827263276,
    "tAvgHot": 16.591259105098832
  },
  {
    "cityName": "Bridgetown, BB",
    "stationId": "GHCND:BB000078954",
    "lat": 13.067,
    "lon": -59.483,
    "tMin": 22.546549560853222,
    "tAvgCold": 25.830626450116025,
    "tMax": 31.099048913043447,
    "tAvgHot": 27.960341151385993
  },
  {
    "cityName": "Brikama, GA",
    "stationId": "GHCND:GAM00061701",
    "lat": 13.338,
    "lon": -16.652,
    "tMin": 16.89207547169811,
    "tAvgCold": 23.724929971988768,
    "tMax": 33.12952127659574,
    "tAvgHot": 27.612953367875633
  },
  {
    "cityName": "Brno, EZ",
    "stationId": "GHCND:EZM00011723",
    "lat": 49.151,
    "lon": 16.694,
    "tMin": -4.13847583643123,
    "tAvgCold": -1.327693965517244,
    "tMax": 25.73466833541927,
    "tAvgHot": 19.94139784946237
  },
  {
    "cityName": "Brussels, BE",
    "stationId": "GHCND:BE000006447",
    "lat": 50.8,
    "lon": 4.35,
    "tMin": 0.8162666666666665,
    "tAvgCold": 3.43686440677966,
    "tMax": 23.06161504424779,
    "tAvgHot": 18.366631016042778
  },
  {
    "cityName": "Bucaramanga, CO",
    "stationId": "GHCND:COM00080094",
    "lat": 7.127,
    "lon": -73.185,
    "tMin": 18.372545090180342,
    "tAvgCold": 21.524083129584326,
    "tMax": 25.991489361702115,
    "tAvgHot": 22.271099050203542
  },
  {
    "cityName": "Buenos Aires, AR",
    "stationId": "GHCND:ARM00087582",
    "lat": -34.559,
    "lon": -58.416,
    "tMin": 7.711388455538223,
    "tAvgCold": 11.294877267876192,
    "tMax": 29.334146341463434,
    "tAvgHot": 24.533552631578953
  },
  {
    "cityName": "Caen, FR",
    "stationId": "GHCND:FRM00007027",
    "lat": 49.173,
    "lon": -0.45,
    "tMin": 2.0504159733777025,
    "tAvgCold": 5.298749999999997,
    "tMax": 23.08948598130843,
    "tAvgHot": 17.84547346514049
  },
  {
    "cityName": "Cali, CO",
    "stationId": "GHCND:CO000080259",
    "lat": 3.55,
    "lon": -76.383,
    "tMin": 18.740680713128004,
    "tAvgCold": 23.15782608695654,
    "tMax": 29.301710730948667,
    "tAvgHot": 24.131870428422154
  },
  {
    "cityName": "Camaguey, CU",
    "stationId": "GHCND:CUM00078355",
    "lat": 21.4,
    "lon": -77.85,
    "tMin": 17.9475982532751,
    "tAvgCold": 22.434879032258067,
    "tMax": 32.76612576064904,
    "tAvgHot": 26.993668528864035
  },
  {
    "cityName": "Cartagena, CO",
    "stationId": "GHCND:COM00080022",
    "lat": 10.442,
    "lon": -75.513,
    "tMin": 23.8586274509804,
    "tAvgCold": 26.91732620320854,
    "tMax": 32.439119170984476,
    "tAvgHot": 28.595942982456123
  },
  {
    "cityName": "Catamarca, AR",
    "stationId": "GHCND:ARM00087222",
    "lat": -28.596,
    "lon": -65.752,
    "tMin": 3.752664974619296,
    "tAvgCold": 12.812632696390635,
    "tMax": 35.56016042780746,
    "tAvgHot": 28.190445859872586
  },
  {
    "cityName": "Cayenne, FG",
    "stationId": "GHCND:FG000081405",
    "lat": 4.833,
    "lon": -52.367,
    "tMin": 22.942985842985838,
    "tAvgCold": 25.6164785553048,
    "tMax": 32.38649635036491,
    "tAvgHot": 27.003657142857122
  },
  {
    "cityName": "Changchun, CH",
    "stationId": "GHCND:CHM00054161",
    "lat": 43.9,
    "lon": 125.217,
    "tMin": -19.0652808988764,
    "tAvgCold": -14.817065556711752,
    "tMax": 27.5070548712206,
    "tAvgHot": 23.245681581685762
  },
  {
    "cityName": "Chengdu, CH",
    "stationId": "GHCND:CHM00056294",
    "lat": 30.667,
    "lon": 104.017,
    "tMin": 3.3023769100169775,
    "tAvgCold": 6.240998959417277,
    "tMax": 29.876740237691003,
    "tAvgHot": 25.974297606659707
  },
  {
    "cityName": "Chittagong, BG",
    "stationId": "GHCND:BGM00041978",
    "lat": 22.25,
    "lon": 91.813,
    "tMin": 14.350310559006214,
    "tAvgCold": 20.62757763975155,
    "tMax": 32.581640624999984,
    "tAvgHot": 29.052341597796165
  },
  {
    "cityName": "Clermont-Ferrand, FR",
    "stationId": "GHCND:FRE00104092",
    "lat": 45.7867,
    "lon": 3.1492,
    "tMin": 0.04859521331945926,
    "tAvgCold": 3.674791666666669,
    "tMax": 26.440790842872026,
    "tAvgHot": 20.465199161425563
  },
  {
    "cityName": "Cochabamba, BL",
    "stationId": "GHCND:BL000085223",
    "lat": -17.42,
    "lon": -66.18,
    "tMin": 2.383600713012477,
    "tAvgCold": 13.780731969860065,
    "tMax": 29.65730769230773,
    "tAvgHot": 19.84854368932041
  },
  {
    "cityName": "Colombo, CE",
    "stationId": "GHCND:CEM00043466",
    "lat": 6.9,
    "lon": 79.867,
    "tMin": 23.59659090909093,
    "tAvgCold": 26.67148148148148,
    "tMax": 31.488983050847466,
    "tAvgHot": 28.77811320754715
  },
  {
    "cityName": "Comodoro Rivadavia, AR",
    "stationId": "GHCND:AR000087860",
    "lat": -45.783,
    "lon": -67.5,
    "tMin": 2.5566486486486513,
    "tAvgCold": 6.951925078043712,
    "tMax": 26.37836477987424,
    "tAvgHot": 19.57797494780794
  },
  {
    "cityName": "Concepcion, CI",
    "stationId": "GHCND:CIM00085682",
    "lat": -36.773,
    "lon": -73.063,
    "tMin": 5.070197740112997,
    "tAvgCold": 9.167637877211247,
    "tMax": 23.56745562130178,
    "tAvgHot": 16.902716823406458
  },
  {
    "cityName": "Constantine, AG",
    "stationId": "GHCND:AGM00060419",
    "lat": 36.276,
    "lon": 6.62,
    "tMin": 2.1383392226148414,
    "tAvgCold": 6.76409185803758,
    "tMax": 34.473276904474055,
    "tAvgHot": 26.080437044745043
  },
  {
    "cityName": "Coquimbo, CI",
    "stationId": "GHCND:CI000085488",
    "lat": -29.917,
    "lon": -71.2,
    "tMin": 7.353808353808356,
    "tAvgCold": 11.063417190775686,
    "tMax": 21.705300353356904,
    "tAvgHot": 17.472235023041506
  },
  {
    "cityName": "Cordoba, AR",
    "stationId": "GHCND:AR000087344",
    "lat": -31.317,
    "lon": -64.217,
    "tMin": 3.867032967032969,
    "tAvgCold": 10.531321540062434,
    "tMax": 29.906821282401086,
    "tAvgHot": 23.563020833333322
  },
  {
    "cityName": "Cork, EI",
    "stationId": "GHCND:EIM00003955",
    "lat": 51.841,
    "lon": -8.491,
    "tMin": 2.8752941176470577,
    "tAvgCold": 5.722174381054891,
    "tMax": 18.574821852731617,
    "tAvgHot": 14.833610822060342
  },
  {
    "cityName": "Corrientes, AR",
    "stationId": "GHCND:ARM00087166",
    "lat": -27.446,
    "lon": -58.762,
    "tMin": 9.426897689768982,
    "tAvgCold": 15.590010741138553,
    "tMax": 34.39909090909089,
    "tAvgHot": 27.359299781181605
  },
  {
    "cityName": "Cotonou, BN",
    "stationId": "GHCND:BN000005344",
    "lat": 6.35,
    "lon": 2.38,
    "tMin": 23.901992031872492,
    "tAvgCold": 25.390746934225177,
    "tMax": 32.246857923497295,
    "tAvgHot": 29.103911205073956
  },
  {
    "cityName": "Cucuta, CO",
    "stationId": "GHCND:VEM00080447",
    "lat": 7.841,
    "lon": -72.44,
    "tMin": 20.88410958904108,
    "tAvgCold": 26.030000000000022,
    "tMax": 34.22346041055717,
    "tAvgHot": 28.611137440758277
  },
  {
    "cityName": "Curitiba, BR",
    "stationId": "GHCND:BR002549075",
    "lat": -25.417,
    "lon": -49.267,
    "tMin": 9.997435897435901,
    "tAvgCold": 15.068468468468463,
    "tMax": 27.43142857142857,
    "tAvgHot": 22.515136476426807
  },
  {
    "cityName": "Dalian, CH",
    "stationId": "GHCND:CHM00054662",
    "lat": 38.9,
    "lon": 121.633,
    "tMin": -6.400221729490025,
    "tAvgCold": -3.540582726326742,
    "tMax": 27.524429223744306,
    "tAvgHot": 24.542559833506775
  },
  {
    "cityName": "Dese, ET",
    "stationId": "GHCND:ET000063333",
    "lat": 11.117,
    "lon": 39.733,
    "tMin": 9.022222222222226,
    "tAvgCold": 17.977730192719502,
    "tMax": 30.238147138964603,
    "tAvgHot": 24.20207039337476
  },
  {
    "cityName": "Dhaka, BG",
    "stationId": "GHCND:BGM00041923",
    "lat": 23.779,
    "lon": 90.383,
    "tMin": 13.335323383084582,
    "tAvgCold": 18.82631578947367,
    "tMax": 32.79897540983608,
    "tAvgHot": 29.14682835820898
  },
  {
    "cityName": "Dijon, FR",
    "stationId": "GHCND:FRM00007280",
    "lat": 47.269,
    "lon": 5.09,
    "tMin": -1.1297989031078612,
    "tAvgCold": 2.0542708333333315,
    "tMax": 26.45724381625439,
    "tAvgHot": 20.306763787721113
  },
  {
    "cityName": "Douala, CM",
    "stationId": "GHCND:CM000004910",
    "lat": 4.02,
    "lon": 9.72,
    "tMin": 23.035657370517924,
    "tAvgCold": 24.952677459526782,
    "tMax": 33.30607734806633,
    "tAvgHot": 28.02017654476668
  },
  {
    "cityName": "Dubai, AE",
    "stationId": "GHCND:AEM00041194",
    "lat": 25.255,
    "lon": 55.364,
    "tMin": 14.599847792998487,
    "tAvgCold": 19.403970741901777,
    "tMax": 41.59828641370868,
    "tAvgHot": 35.488761706555685
  },
  {
    "cityName": "Dublin, EI",
    "stationId": "GHCND:EIM00003967",
    "lat": 53.302,
    "lon": -6.451,
    "tMin": 1.863981042654028,
    "tAvgCold": 5.367130214917831,
    "tMax": 19.71393728222998,
    "tAvgHot": 15.354393770856515
  },
  {
    "cityName": "Durres, AL",
    "stationId": "GHCND:ALM00013615",
    "lat": 41.415,
    "lon": 19.721,
    "tMin": 2.1822335025380717,
    "tAvgCold": 7.196901408450706,
    "tMax": 32.71140684410646,
    "tAvgHot": 25.565198863636343
  },
  {
    "cityName": "Formosa, AR",
    "stationId": "GHCND:ARM00087162",
    "lat": -26.213,
    "lon": -58.228,
    "tMin": 11.205671641791056,
    "tAvgCold": 16.467883211678824,
    "tMax": 35.41779448621552,
    "tAvgHot": 27.753507853403114
  },
  {
    "cityName": "Francistown, BC",
    "stationId": "GHCND:BC008948490",
    "lat": -21.217,
    "lon": 27.5,
    "tMin": 4.857142857142855,
    "tAvgCold": 15.709201773835911,
    "tMax": 33.16633663366341,
    "tAvgHot": 25.85738444193916
  },
  {
    "cityName": "Fushun, CH",
    "stationId": "GHCND:CHM00054342",
    "lat": 41.733,
    "lon": 123.517,
    "tMin": -17.035097192224633,
    "tAvgCold": -11.456503642039557,
    "tMax": 29.043296703296672,
    "tAvgHot": 24.60916666666665
  },
  {
    "cityName": "Fuzhou, CH",
    "stationId": "GHCND:CHM00058847",
    "lat": 26.083,
    "lon": 119.283,
    "tMin": 8.501744820065433,
    "tAvgCold": 11.231009365244523,
    "tMax": 34.58285077951004,
    "tAvgHot": 29.25879292403745
  },
  {
    "cityName": "Gaborone, BC",
    "stationId": "GHCND:BC005847300",
    "lat": -24.667,
    "lon": 25.917,
    "tMin": 5.141218637992831,
    "tAvgCold": 15.246127946127954,
    "tMax": 32.92913907284769,
    "tAvgHot": 27.43830508474577
  },
  {
    "cityName": "Garoua, CM",
    "stationId": "GHCND:CMM00064860",
    "lat": 9.336,
    "lon": 13.37,
    "tMin": 22.57018348623854,
    "tAvgCold": 26.544011976047905,
    "tMax": 40.22319474835886,
    "tAvgHot": 33.80254872563717
  },
  {
    "cityName": "Gonder, ET",
    "stationId": "GHCND:ET000063331",
    "lat": 12.55,
    "lon": 37.417,
    "tMin": 13.028198433420359,
    "tAvgCold": 18.473553719008272,
    "tMax": 29.344392523364487,
    "tAvgHot": 23.782191780821936
  },
  {
    "cityName": "Graz, AU",
    "stationId": "GHCND:AU000016402",
    "lat": 47.0831,
    "lon": 15.45,
    "tMin": -3.619187358916478,
    "tAvgCold": -1.3506250000000013,
    "tMax": 26.500765027322384,
    "tAvgHot": 20.495213319458898
  },
  {
    "cityName": "Guangzhou, CH",
    "stationId": "GHCND:CHM00059287",
    "lat": 23.217,
    "lon": 113.483,
    "tMin": 10.492632719393283,
    "tAvgCold": 13.905411030176897,
    "tMax": 33.246857142857166,
    "tAvgHot": 29.004370447450572
  },
  {
    "cityName": "Guiyang, CH",
    "stationId": "GHCND:CHM00057816",
    "lat": 26.583,
    "lon": 106.733,
    "tMin": 2.1907488986784136,
    "tAvgCold": 4.523517169614986,
    "tMax": 27.800571428571413,
    "tAvgHot": 23.403642039542138
  },
  {
    "cityName": "Hangzhou, CH",
    "stationId": "GHCND:CHM00058457",
    "lat": 30.233,
    "lon": 120.167,
    "tMin": 1.9070407040704058,
    "tAvgCold": 4.801456815816853,
    "tMax": 33.84954954954956,
    "tAvgHot": 29.14276795005201
  },
  {
    "cityName": "Harbin, CH",
    "stationId": "GHCND:CHM00050953",
    "lat": 45.75,
    "lon": 126.767,
    "tMin": -22.93232432432434,
    "tAvgCold": -17.677315296566068,
    "tMax": 27.82992299229919,
    "tAvgHot": 23.2628125
  },
  {
    "cityName": "Hasselt, BE",
    "stationId": "GHCND:NLM00006380",
    "lat": 50.9053,
    "lon": 5.7617,
    "tMin": 0.1273673257023933,
    "tAvgCold": 2.8807291666666646,
    "tMax": 23.36066597294484,
    "tAvgHot": 18.433194588969823
  },
  {
    "cityName": "Havana, CU",
    "stationId": "GHCND:CUM00078325",
    "lat": 23.167,
    "lon": -82.35,
    "tMin": 18.539849624060142,
    "tAvgCold": 22.13517241379311,
    "tMax": 32.42347826086954,
    "tAvgHot": 27.738056013179566
  },
  {
    "cityName": "Hefei, CH",
    "stationId": "GHCND:CHM00058321",
    "lat": 31.867,
    "lon": 117.233,
    "tMin": -0.18785557986870882,
    "tAvgCold": 3.0915712799167525,
    "tMax": 32.42249466950961,
    "tAvgHot": 28.47866805411033
  },
  {
    "cityName": "Ho, GH",
    "stationId": "GHCND:GHM00065453",
    "lat": 6.6,
    "lon": 0.467,
    "tMin": 22.012765957446824,
    "tAvgCold": 25.59330143540669,
    "tMax": 34.624999999999986,
    "tAvgHot": 29.357222222222255
  },
  {
    "cityName": "Homyel', BO",
    "stationId": "GHCND:BOM00033041",
    "lat": 52.4,
    "lon": 30.95,
    "tMin": -7.570264317180609,
    "tAvgCold": -4.689802289281998,
    "tMax": 25.293560606060602,
    "tAvgHot": 20.15608740894902
  },
  {
    "cityName": "Honiara, BP",
    "stationId": "GHCND:BP000091517",
    "lat": -9.417,
    "lon": 159.967,
    "tMin": 22.86704980842913,
    "tAvgCold": 26.589277389277395,
    "tMax": 31.911811023622054,
    "tAvgHot": 27.786214953271042
  },
  {
    "cityName": "Huhot, CH",
    "stationId": "GHCND:CHM00053463",
    "lat": 40.817,
    "lon": 111.683,
    "tMin": -15.551894374282446,
    "tAvgCold": -10.727055150884507,
    "tMax": 29.243586833144136,
    "tAvgHot": 23.26930280957334
  },
  {
    "cityName": "Ibague, CO",
    "stationId": "GHCND:COM00080214",
    "lat": 4.422,
    "lon": -75.133,
    "tMin": 18.99966996699671,
    "tAvgCold": 23.882988505747136,
    "tMax": 32.2862385321101,
    "tAvgHot": 26.521252796420573
  },
  {
    "cityName": "Iraklion, GR",
    "stationId": "GHCND:GR000016754",
    "lat": 35.3331,
    "lon": 25.1831,
    "tMin": 8.717440225035176,
    "tAvgCold": 12.010514285714287,
    "tMax": 29.15172004744966,
    "tAvgHot": 26.031113423517183
  },
  {
    "cityName": "Jima, ET",
    "stationId": "GHCND:ET000063402",
    "lat": 7.667,
    "lon": 36.833,
    "tMin": 13.5154046997389,
    "tAvgCold": 18.420881670533653,
    "tMax": 29.254910714285728,
    "tAvgHot": 20.94863523573202
  },
  {
    "cityName": "Jinan, CH",
    "stationId": "GHCND:CHM00054823",
    "lat": 36.6,
    "lon": 117.05,
    "tMin": -3.7248104008667395,
    "tAvgCold": -0.20884495317377708,
    "tMax": 32.097486338797786,
    "tAvgHot": 27.573826903023942
  },
  {
    "cityName": "Joao Pessoa, BR",
    "stationId": "GHCND:BR039402250",
    "lat": -7.1,
    "lon": -34.867,
    "tMin": 21.328813559322032,
    "tAvgCold": 24.335294117647077,
    "tMax": 31.07075471698113,
    "tAvgHot": 27.290189328743548
  },
  {
    "cityName": "Jyvaskyla, FI",
    "stationId": "GHCND:FI000002401",
    "lat": 62.4019,
    "lon": 25.6783,
    "tMin": -11.835483870967751,
    "tAvgCold": -8.236875000000008,
    "tMax": 21.91727367325701,
    "tAvgHot": 16.674583333333338
  },
  {
    "cityName": "Kabul, AF",
    "stationId": "GHCND:AFM00040948",
    "lat": 34.566,
    "lon": 69.212,
    "tMin": -3.6629629629629634,
    "tAvgCold": 0.2142284569138278,
    "tMax": 34.25000000000001,
    "tAvgHot": 27.046428571428546
  },
  {
    "cityName": "Kandahar, AF",
    "stationId": "GHCND:AFM00040990",
    "lat": 31.5,
    "lon": 65.85,
    "tMin": 1.2818181818181817,
    "tAvgCold": 7.482653061224494,
    "tMax": 41.90714285714286,
    "tAvgHot": 33.65960591133006
  },
  {
    "cityName": "Kashi, CH",
    "stationId": "GHCND:CHM00051709",
    "lat": 39.467,
    "lon": 75.983,
    "tMin": -9.774788135593218,
    "tAvgCold": -4.972112382934443,
    "tMax": 31.951314285714293,
    "tAvgHot": 25.83142559833505
  },
  {
    "cityName": "Kinshasa, CG",
    "stationId": "GHCND:CF000004450",
    "lat": -4.25,
    "lon": 15.25,
    "tMin": 19.055032119914348,
    "tAvgCold": 23.040589569161003,
    "tMax": 32.470709382151085,
    "tAvgHot": 26.61380510440832
  },
  {
    "cityName": "Klagenfurt, AU",
    "stationId": "GHCND:AUM00011231",
    "lat": 46.65,
    "lon": 14.333,
    "tMin": -6.875541125541122,
    "tAvgCold": -3.1429166666666637,
    "tMax": 26.57571801566582,
    "tAvgHot": 19.662122788761724
  },
  {
    "cityName": "Koforidua, GH",
    "stationId": "GHCND:GHM00065459",
    "lat": 6.083,
    "lon": -0.25,
    "tMin": 22.011594202898554,
    "tAvgCold": 25.27695852534563,
    "tMax": 33.94571428571428,
    "tAvgHot": 28.516184971098255
  },
  {
    "cityName": "Kumasi, GH",
    "stationId": "GHCND:GHM00065442",
    "lat": 6.715,
    "lon": -1.591,
    "tMin": 21.57079646017699,
    "tAvgCold": 24.512500000000017,
    "tMax": 33.911111111111104,
    "tAvgHot": 28.10819672131147
  },
  {
    "cityName": "Kunming, CH",
    "stationId": "GHCND:CHM00056778",
    "lat": 25.017,
    "lon": 102.683,
    "tMin": 4.430357142857146,
    "tAvgCold": 9.034963579604588,
    "tMax": 24.881379310344837,
    "tAvgHot": 20.37053763440862
  },
  {
    "cityName": "La Paz, BL",
    "stationId": "GHCND:BLM00085201",
    "lat": -16.513,
    "lon": -68.192,
    "tMin": -4.1875,
    "tAvgCold": 4.855381400208988,
    "tMax": 16.993246753246805,
    "tAvgHot": 8.912944983818768
  },
  {
    "cityName": "La Plata, AR",
    "stationId": "GHCND:ARM00087593",
    "lat": -34.972,
    "lon": -57.895,
    "tMin": 4.429478827361571,
    "tAvgCold": 9.856684491978596,
    "tMax": 30.335211267605622,
    "tAvgHot": 24.296463022508057
  },
  {
    "cityName": "La Rioja, AR",
    "stationId": "GHCND:AR000087217",
    "lat": -29.383,
    "lon": -66.817,
    "tMin": 4.0432754880694155,
    "tAvgCold": 11.897581493165076,
    "tMax": 35.25738786279681,
    "tAvgHot": 28.16854754440962
  },
  {
    "cityName": "La Serena, CI",
    "stationId": "GHCND:CI000085488",
    "lat": -29.917,
    "lon": -71.2,
    "tMin": 7.353808353808356,
    "tAvgCold": 11.063417190775686,
    "tMax": 21.705300353356904,
    "tAvgHot": 17.472235023041506
  },
  {
    "cityName": "Laghouat, AG",
    "stationId": "GHCND:AGE00147719",
    "lat": 33.7997,
    "lon": 2.89,
    "tMin": 2.041463414634147,
    "tAvgCold": 8.149892473118285,
    "tMax": 40.14938271604939,
    "tAvgHot": 32.57383966244725
  },
  {
    "cityName": "Lhasa, CH",
    "stationId": "GHCND:CHM00055591",
    "lat": 29.667,
    "lon": 91.133,
    "tMin": -7.469841269841267,
    "tAvgCold": -0.32177083333333256,
    "tMax": 23.871477663230227,
    "tAvgHot": 16.645591397849454
  },
  {
    "cityName": "Libreville, GB",
    "stationId": "GHCND:GBM00064500",
    "lat": 0.459,
    "lon": 9.412,
    "tMin": 22.088316151202736,
    "tAvgCold": 24.79362186788158,
    "tMax": 31.002626641651055,
    "tAvgHot": 27.48963963963956
  },
  {
    "cityName": "Lille, FR",
    "stationId": "GHCND:FRE00104040",
    "lat": 50.57,
    "lon": 3.0975,
    "tMin": 1.317169614984391,
    "tAvgCold": 3.6345833333333335,
    "tMax": 23.271279916753397,
    "tAvgHot": 18.47599164926932
  },
  {
    "cityName": "Limoges, FR",
    "stationId": "GHCND:FRE00106195",
    "lat": 45.8608,
    "lon": 1.175,
    "tMin": 1.440582726326741,
    "tAvgCold": 3.9307291666666657,
    "tMax": 23.98782518210196,
    "tAvgHot": 19.164932362122777
  },
  {
    "cityName": "Lokossa, BN",
    "stationId": "GHCND:TO000005380",
    "lat": 6.58,
    "lon": 1.5,
    "tMin": 22.103640776699024,
    "tAvgCold": 25.69595375722544,
    "tMax": 36.06576086956523,
    "tAvgHot": 29.16946564885496
  },
  {
    "cityName": "Loubomo, CF",
    "stationId": "GHCND:CF000004401",
    "lat": -4.18,
    "lon": 12.67,
    "tMin": 18.508604651162795,
    "tAvgCold": 22.49030303030302,
    "tMax": 32.07056962025318,
    "tAvgHot": 26.56930455635493
  },
  {
    "cityName": "Luanda, AO",
    "stationId": "GHCND:AO000066160",
    "lat": -8.85,
    "lon": 13.233,
    "tMin": 18.097727272727266,
    "tAvgCold": 21.09922279792745,
    "tMax": 31.72641509433962,
    "tAvgHot": 27.747706422018336
  },
  {
    "cityName": "Lumumbashi, CG",
    "stationId": "GHCND:CGM00064360",
    "lat": -11.591,
    "lon": 27.531,
    "tMin": 10.65,
    "tAvgCold": 19.72769230769231,
    "tMax": null,
    "tAvgHot": null
  },
  {
    "cityName": "Lyon, FR",
    "stationId": "GHCND:FR069029001",
    "lat": 45.7264,
    "lon": 5.0778,
    "tMin": 0.4642039542143596,
    "tAvgCold": 3.5430555555555556,
    "tMax": 27.095629552549443,
    "tAvgHot": 22.53144989339021
  },
  {
    "cityName": "Macapa, BR",
    "stationId": "GHCND:BRM00082098",
    "lat": 0.051,
    "lon": -51.072,
    "tMin": 23.293150684931522,
    "tAvgCold": 26.361683417085406,
    "tMax": 33.399565217391284,
    "tAvgHot": 28.87097505668935
  },
  {
    "cityName": "Macau, CH",
    "stationId": "GHCND:MCM00045011",
    "lat": 22.15,
    "lon": 113.592,
    "tMin": 12.151433389544676,
    "tAvgCold": 15.05666666666667,
    "tMax": 31.89338422391858,
    "tAvgHot": 28.746097814776274
  },
  {
    "cityName": "Maceio, BR",
    "stationId": "GHCND:BR038983570",
    "lat": -9.517,
    "lon": -35.783,
    "tMin": 20.170223752151475,
    "tAvgCold": 23.34884696016773,
    "tMax": 31.566033254156764,
    "tAvgHot": 26.787079831932775
  },
  {
    "cityName": "Magdeburg, GM",
    "stationId": "GHCND:GME00102252",
    "lat": 52.1031,
    "lon": 11.5842,
    "tMin": -1.8415192507804379,
    "tAvgCold": 1.6548387096774195,
    "tMax": 24.400208116545276,
    "tAvgHot": 20.49473684210526
  },
  {
    "cityName": "Manama, BA",
    "stationId": "GHCND:BA000041150",
    "lat": 26.267,
    "lon": 50.65,
    "tMin": 13.970270270270264,
    "tAvgCold": 17.083210137275607,
    "tMax": 39.30535248041782,
    "tAvgHot": 34.81675338189387
  },
  {
    "cityName": "Mandalay, BM",
    "stationId": "GHCND:BMM00048042",
    "lat": 21.983,
    "lon": 96.1,
    "tMin": 14.361176470588234,
    "tAvgCold": 22.88198874296433,
    "tMax": 38.83945945945948,
    "tAvgHot": 32.030365296803645
  },
  {
    "cityName": "Maroua, CM",
    "stationId": "GHCND:CMM00064851",
    "lat": 10.451,
    "lon": 14.257,
    "tMin": 17.19181286549708,
    "tAvgCold": 25.037552742616036,
    "tMax": 39.72403846153846,
    "tAvgHot": 33.5814814814815
  },
  {
    "cityName": "Marsa Matruh, EG",
    "stationId": "GHCND:EG000062306",
    "lat": 31.3331,
    "lon": 27.2167,
    "tMin": 9.498145506419405,
    "tAvgCold": 13.704968287526412,
    "tMax": 30.277272727272717,
    "tAvgHot": 26.623958333333302
  },
  {
    "cityName": "Mbuji-Mayi, CG",
    "stationId": "GHCND:CGM00064247",
    "lat": -6.167,
    "lon": 23.617,
    "tMin": 19.2,
    "tAvgCold": 25.88571428571429,
    "tMax": 33.385714285714286,
    "tAvgHot": 29.091666666666665
  },
  {
    "cityName": "Medellin, CO",
    "stationId": "GHCND:COM00080112",
    "lat": 6.165,
    "lon": -75.423,
    "tMin": 12.752164948453611,
    "tAvgCold": 16.35613425925928,
    "tMax": 23.219354838709673,
    "tAvgHot": 17.15107102593008
  },
  {
    "cityName": "Mendoza, AR",
    "stationId": "GHCND:AR000087418",
    "lat": -32.833,
    "lon": -68.783,
    "tMin": 1.762832800851974,
    "tAvgCold": 8.409989594172725,
    "tMax": 32.868791500663995,
    "tAvgHot": 25.7821875
  },
  {
    "cityName": "Minsk, BO",
    "stationId": "GHCND:BOM00026850",
    "lat": 53.87,
    "lon": 27.53,
    "tMin": -7.009888751545123,
    "tAvgCold": -4.581581685744009,
    "tMax": 23.828160919540235,
    "tAvgHot": 19.01165452653487
  },
  {
    "cityName": "Monteria, CO",
    "stationId": "GHCND:COM00080063",
    "lat": 8.824,
    "lon": -75.826,
    "tMin": 23.32890173410404,
    "tAvgCold": 28.413419913419908,
    "tMax": 35.09891304347825,
    "tAvgHot": 29.61724137931034
  },
  {
    "cityName": "Montpellier, FR",
    "stationId": "GHCND:FRE00106207",
    "lat": 43.5767,
    "lon": 3.9631,
    "tMin": 2.8730489073881342,
    "tAvgCold": 6.9265624999999975,
    "tMax": 29.373465140478707,
    "tAvgHot": 24.316961498439095
  },
  {
    "cityName": "Mostaganem, AG",
    "stationId": "GHCND:AGM00060457",
    "lat": 35.883,
    "lon": 0.117,
    "tMin": 5.331310679611647,
    "tAvgCold": 10.68821218074656,
    "tMax": 32.226923076923065,
    "tAvgHot": 26.16908396946567
  },
  {
    "cityName": "Moundou, CD",
    "stationId": "GHCND:CD000064706",
    "lat": 8.567,
    "lon": 16.067,
    "tMin": 21.46234096692112,
    "tAvgCold": 26.30752895752893,
    "tMax": 38.9258064516129,
    "tAvgHot": 33.370249520153564
  },
  {
    "cityName": "Myitkyina, BM",
    "stationId": "GHCND:BMM00048008",
    "lat": 25.367,
    "lon": 97.4,
    "tMin": 10.841336633663367,
    "tAvgCold": 18.75637065637066,
    "tMax": 31.917187499999994,
    "tAvgHot": 28.26311926605503
  },
  {
    "cityName": "Nanchang, CH",
    "stationId": "GHCND:CHM00058606",
    "lat": 28.6,
    "lon": 115.917,
    "tMin": 3.1757019438444942,
    "tAvgCold": 5.725390218522371,
    "tMax": 33.74155555555554,
    "tAvgHot": 29.569374999999987
  },
  {
    "cityName": "Nancy, FR",
    "stationId": "GHCND:FRE00171632",
    "lat": 48.5808,
    "lon": 5.9594,
    "tMin": -0.792924037460978,
    "tAvgCold": 1.7508474576271196,
    "tMax": 24.237044745057233,
    "tAvgHot": 18.789886363636352
  },
  {
    "cityName": "Nanjing, CH",
    "stationId": "GHCND:CHM00058238",
    "lat": 31.933,
    "lon": 118.9,
    "tMin": -0.49586129753914954,
    "tAvgCold": 2.951612903225806,
    "tMax": 32.30838052095133,
    "tAvgHot": 28.268262226847007
  },
  {
    "cityName": "Nanning, CH",
    "stationId": "GHCND:CHM00059431",
    "lat": 22.633,
    "lon": 108.217,
    "tMin": 9.8780065005417,
    "tAvgCold": 12.802393340270541,
    "tMax": 32.83578595317727,
    "tAvgHot": 28.305619146722172
  },
  {
    "cityName": "Nantes, FR",
    "stationId": "GHCND:FRM00007222",
    "lat": 47.15,
    "lon": -1.6089,
    "tMin": 3.0842872008324638,
    "tAvgCold": 5.89541188738269,
    "tMax": 24.775754422476584,
    "tAvgHot": 19.4621227887617
  },
  {
    "cityName": "Nassau, BF",
    "stationId": "GHCND:BF000078073",
    "lat": 25.05,
    "lon": -77.467,
    "tMin": 18.032198952879575,
    "tAvgCold": 22.054669464847834,
    "tMax": 32.67940414507776,
    "tAvgHot": 28.962800417972826
  },
  {
    "cityName": "Natitingou, BN",
    "stationId": "GHCND:BN000005319",
    "lat": 10.32,
    "lon": 1.48,
    "tMin": 21.32587209302324,
    "tAvgCold": 24.78898734177214,
    "tMax": 37.835541401273915,
    "tAvgHot": 30.215632458233866
  },
  {
    "cityName": "Ndjamena, CD",
    "stationId": "GHCND:CD000004700",
    "lat": 12.13,
    "lon": 15.03,
    "tMin": 14.640792540792548,
    "tAvgCold": 23.5914519906323,
    "tMax": 42.01673076923079,
    "tAvgHot": 34.02802395209582
  },
  {
    "cityName": "Neiva, CO",
    "stationId": "GHCND:COM00080315",
    "lat": 2.95,
    "lon": -75.294,
    "tMin": 22.380693069306943,
    "tAvgCold": 27.407249070631963,
    "tMax": 35.496753246753265,
    "tAvgHot": 29.714128440366995
  },
  {
    "cityName": "Neuquen, AR",
    "stationId": "GHCND:AR000087715",
    "lat": -38.95,
    "lon": -68.133,
    "tMin": -0.18752688172043014,
    "tAvgCold": 6.43832271762208,
    "tMax": 32.20050062578222,
    "tAvgHot": 23.99903536977489
  },
  {
    "cityName": "Ngaoundere, CM",
    "stationId": "GHCND:CM000064870",
    "lat": 7.35,
    "lon": 13.567,
    "tMin": 10.346177370030581,
    "tAvgCold": 20.72989473684211,
    "tMax": 32.89442970822283,
    "tAvgHot": 24.624363636363643
  },
  {
    "cityName": "Nueva San Salvador, ES",
    "stationId": "GHCND:ES003800510",
    "lat": 13.7,
    "lon": -89.117,
    "tMin": 18.57058823529412,
    "tAvgCold": 24.430625832223697,
    "tMax": 33.02284122562675,
    "tAvgHot": 26.444665718349974
  },
  {
    "cityName": "Oran, AG",
    "stationId": "GHCND:AGM00060490",
    "lat": 35.624,
    "lon": -0.621,
    "tMin": 5.032958199356909,
    "tAvgCold": 10.70041797283176,
    "tMax": 32.39913366336634,
    "tAvgHot": 26.230375782881016
  },
  {
    "cityName": "Oruro, BL",
    "stationId": "GHCND:BLM00085242",
    "lat": -17.963,
    "lon": -67.076,
    "tMin": -6.225221238938056,
    "tAvgCold": 7.668470588235286,
    "tMax": 20.927750410509006,
    "tAvgHot": 14.557444314185222
  },
  {
    "cityName": "Ostrava, EZ",
    "stationId": "GHCND:EZM00011782",
    "lat": 49.696,
    "lon": 18.111,
    "tMin": -4.5946257197696685,
    "tAvgCold": -1.467456896551724,
    "tMax": 25.072848484848496,
    "tAvgHot": 19.051716961498432
  },
  {
    "cityName": "Parakou, BN",
    "stationId": "GHCND:BNM00065330",
    "lat": 9.35,
    "lon": 2.617,
    "tMin": 21.580897250361804,
    "tAvgCold": 24.44957369062116,
    "tMax": 37.08402515723273,
    "tAvgHot": 29.9508875739645
  },
  {
    "cityName": "Parana, AR",
    "stationId": "GHCND:AR000087374",
    "lat": -31.783,
    "lon": -60.483,
    "tMin": 6.925604395604389,
    "tAvgCold": 11.660612691466085,
    "tMax": 31.463903061224453,
    "tAvgHot": 25.17516483516486
  },
  {
    "cityName": "Paris, FR",
    "stationId": "GHCND:FR000007150",
    "lat": 48.8231,
    "lon": 2.3367,
    "tMin": 2.5076398362892234,
    "tAvgCold": 4.9511177347242885,
    "tMax": 25.41198547215498,
    "tAvgHot": 20.391926345609075
  },
  {
    "cityName": "Pasto, CO",
    "stationId": "GHCND:CO000080342",
    "lat": 1.417,
    "lon": -77.267,
    "tMin": 14.429583975346658,
    "tAvgCold": 19.07859327217127,
    "tMax": 24.352554744525545,
    "tAvgHot": 21.46885714285715
  },
  {
    "cityName": "Pereira, CO",
    "stationId": "GHCND:COM00080210",
    "lat": 4.813,
    "lon": -75.74,
    "tMin": 17.386895161290322,
    "tAvgCold": 21.49670828603858,
    "tMax": 27.855749128919857,
    "tAvgHot": 22.382002534854205
  },
  {
    "cityName": "Perth, AS",
    "stationId": "GHCND:ASN00009021",
    "lat": -31.9275,
    "lon": 115.9764,
    "tMin": 8.031841831425595,
    "tAvgCold": 12.677731529656594,
    "tMax": 32.48525714285713,
    "tAvgHot": 24.82685714285714
  },
  {
    "cityName": "Phnom Penh, CB",
    "stationId": "GHCND:CBM00048991",
    "lat": 11.547,
    "lon": 104.844,
    "tMin": 22.461988304093577,
    "tAvgCold": 27.279494799405644,
    "tMax": 34.8,
    "tAvgHot": 31.008813559322018
  },
  {
    "cityName": "Pointe Noire, CF",
    "stationId": "GHCND:CF000004400",
    "lat": -4.82,
    "lon": 11.9,
    "tMin": 19.50879864636208,
    "tAvgCold": 22.623775388291527,
    "tMax": 31.373800738007382,
    "tAvgHot": 27.60442583732057
  },
  {
    "cityName": "Poitiers, FR",
    "stationId": "GHCND:FRM00007335",
    "lat": 46.588,
    "lon": 0.307,
    "tMin": 0.9993043478260868,
    "tAvgCold": 4.669583333333329,
    "tMax": 26.071176470588235,
    "tAvgHot": 19.83885416666667
  },
  {
    "cityName": "Port Gentil, GB",
    "stationId": "GHCND:GB000004501",
    "lat": -0.72,
    "lon": 8.78,
    "tMin": 22.06801948051948,
    "tAvgCold": 24.203435114503822,
    "tMax": 30.880789946140098,
    "tAvgHot": 28.304458598726132
  },
  {
    "cityName": "Porto Alegre, BR",
    "stationId": "GHCND:BRM00083967",
    "lat": -29.946,
    "lon": -51.144,
    "tMin": 10.63333333333333,
    "tAvgCold": 14.430740740740744,
    "tMax": 32.44126984126984,
    "tAvgHot": 26.156468172484598
  },
  {
    "cityName": "Posadas, AR",
    "stationId": "GHCND:ARM00087178",
    "lat": -27.386,
    "lon": -55.971,
    "tMin": 11.01923076923076,
    "tAvgCold": 16.176041666666638,
    "tMax": 34.12686567164178,
    "tAvgHot": 27.16492146596857
  },
  {
    "cityName": "Potosi, BL",
    "stationId": "GHCND:BLM00085293",
    "lat": -19.543,
    "lon": -65.724,
    "tMin": -5.17479224376731,
    "tAvgCold": 7.98554033485541,
    "tMax": 18.633971291866047,
    "tAvgHot": 12.634769687964347
  },
  {
    "cityName": "Potsdam, GM",
    "stationId": "GHCND:GM000003342",
    "lat": 52.3833,
    "lon": 13.0639,
    "tMin": -2.2765868886576435,
    "tAvgCold": 1.051612903225806,
    "tMax": 24.33704474505722,
    "tAvgHot": 20.37368421052632
  },
  {
    "cityName": "Praia, CV",
    "stationId": "GHCND:CVM00008589",
    "lat": 14.917,
    "lon": -23.6,
    "tMin": 19.205855855855855,
    "tAvgCold": 22.356011730205278,
    "tMax": 30.797424892703887,
    "tAvgHot": 27.218627450980414
  },
  {
    "cityName": "Puerto Limon, CS",
    "stationId": "GHCND:CS000081003",
    "lat": 9.967,
    "lon": -83.017,
    "tMin": 20.828896882493982,
    "tAvgCold": 25.846859903381617,
    "tMax": 30.399254658385054,
    "tAvgHot": 27.93630136986304
  },
  {
    "cityName": "Puerto Montt, CI",
    "stationId": "GHCND:CI000085799",
    "lat": -41.433,
    "lon": -73.1,
    "tMin": 2.911960132890365,
    "tAvgCold": 6.551832460732983,
    "tMax": 20.751255230125516,
    "tAvgHot": 14.309214659685866
  },
  {
    "cityName": "Punta Arenas, CI",
    "stationId": "GHCND:CI000085934",
    "lat": -53,
    "lon": -70.967,
    "tMin": -1.2099650349650353,
    "tAvgCold": 1.7794549266247386,
    "tMax": 15.844050104384142,
    "tAvgHot": 10.622736842105253
  },
  {
    "cityName": "Qingdao, CH",
    "stationId": "GHCND:CHM00054857",
    "lat": 36.067,
    "lon": 120.333,
    "tMin": -2.7437013996889568,
    "tAvgCold": -0.3028124999999996,
    "tMax": 28.47691131498472,
    "tAvgHot": 25.784807492195633
  },
  {
    "cityName": "Qiqihar, CH",
    "stationId": "GHCND:CHM00050745",
    "lat": 47.383,
    "lon": 123.917,
    "tMin": -23.41483870967742,
    "tAvgCold": -18.32632674297608,
    "tMax": 27.97270718232042,
    "tAvgHot": 23.353645833333335
  },
  {
    "cityName": "Quibdo, CO",
    "stationId": "GHCND:COM00080144",
    "lat": 5.691,
    "lon": -76.641,
    "tMin": 23.35084745762711,
    "tAvgCold": 26.702281368821296,
    "tMax": 32.15925925925926,
    "tAvgHot": 27.479672131147545
  },
  {
    "cityName": "Rajshahi, BG",
    "stationId": "GHCND:BGM00041907",
    "lat": 24.153,
    "lon": 89.049,
    "tMin": 10.123376623376627,
    "tAvgCold": 16.641666666666676,
    "tMax": 33.71184834123222,
    "tAvgHot": 29.27078189300413
  },
  {
    "cityName": "Rangoon, BM",
    "stationId": "GHCND:BMM00048097",
    "lat": 16.907,
    "lon": 96.133,
    "tMin": 16.58733459357276,
    "tAvgCold": 25.394436906377194,
    "tMax": 37.71325051759834,
    "tAvgHot": 30.812208504801056
  },
  {
    "cityName": "Regina, CA",
    "stationId": "GHCND:CA004016699",
    "lat": 50.4333,
    "lon": -104.6667,
    "tMin": -17.220571428571432,
    "tAvgCold": -7.206451612903226,
    "tMax": null,
    "tAvgHot": null
  },
  {
    "cityName": "Rennes, FR",
    "stationId": "GHCND:FR000007130",
    "lat": 48.0689,
    "lon": -1.7339,
    "tMin": 2.987408949011448,
    "tAvgCold": 5.7216666666666685,
    "tMax": 24.42445369406868,
    "tAvgHot": 18.84706498951783
  },
  {
    "cityName": "Resistencia, AR",
    "stationId": "GHCND:ARM00087166",
    "lat": -27.446,
    "lon": -58.762,
    "tMin": 9.426897689768982,
    "tAvgCold": 15.590010741138554,
    "tMax": 34.39909090909089,
    "tAvgHot": 27.3592997811816
  },
  {
    "cityName": "Rio Gallegos, AR",
    "stationId": "GHCND:AR000087925",
    "lat": -51.617,
    "lon": -69.283,
    "tMin": -2.323863636363639,
    "tAvgCold": 1.473826903023984,
    "tMax": 20.24919053549191,
    "tAvgHot": 13.663417190775682
  },
  {
    "cityName": "Rio de Janeiro, BR",
    "stationId": "GHCND:BRM00083746",
    "lat": -22.809,
    "lon": -43.244,
    "tMin": 16.96258064516129,
    "tAvgCold": 21.22791666666664,
    "tMax": 32.81720430107527,
    "tAvgHot": 27.843699421965283
  },
  {
    "cityName": "Riohacha, CO",
    "stationId": "GHCND:COM00080035",
    "lat": 11.526,
    "lon": -72.926,
    "tMin": 22.883333333333333,
    "tAvgCold": 28.351744186046503,
    "tMax": 36.055681818181824,
    "tAvgHot": 31.320192307692324
  },
  {
    "cityName": "Rockhampton, AS",
    "stationId": "GHCND:ASN00039083",
    "lat": -23.3753,
    "lon": 150.4775,
    "tMin": 10.408012486992712,
    "tAvgCold": 16.571893147502912,
    "tMax": 32.49791883454738,
    "tAvgHot": 26.962817551963077
  },
  {
    "cityName": "Rosario, AR",
    "stationId": "GHCND:ARM00087480",
    "lat": -32.904,
    "lon": -60.785,
    "tMin": 4.123150684931508,
    "tAvgCold": 10.43386075949367,
    "tMax": 32.172404371584705,
    "tAvgHot": 24.777610333692127
  },
  {
    "cityName": "Rouen, FR",
    "stationId": "GHCND:FRE00106184",
    "lat": 49.3831,
    "lon": 1.1817,
    "tMin": 1.2370447450572337,
    "tAvgCold": 3.7651673640167407,
    "tMax": 22.857232049947964,
    "tAvgHot": 17.778787878787867
  },
  {
    "cityName": "Sagaing, BM",
    "stationId": "GHCND:BMM00048042",
    "lat": 21.983,
    "lon": 96.1,
    "tMin": 14.361176470588232,
    "tAvgCold": 22.88198874296434,
    "tMax": 38.83945945945948,
    "tAvgHot": 32.030365296803645
  },
  {
    "cityName": "Saida, AG",
    "stationId": "GHCND:AGM00060536",
    "lat": 34.867,
    "lon": 0.15,
    "tMin": 2.6472154963680365,
    "tAvgCold": 7.906463878326993,
    "tMax": 36.83918367346943,
    "tAvgHot": 27.99111531190925
  },
  {
    "cityName": "Salta, AR",
    "stationId": "GHCND:AR000870470",
    "lat": -24.85,
    "lon": -65.483,
    "tMin": 2.5985807860261967,
    "tAvgCold": 10.438179916317987,
    "tMax": 28.582446808510603,
    "tAvgHot": 21.33315733896516
  },
  {
    "cityName": "San Andres, CO",
    "stationId": "GHCND:CO000080001",
    "lat": 12.583,
    "lon": -81.717,
    "tMin": 24.742278860569723,
    "tAvgCold": 26.882458233890212,
    "tMax": 29.542701863354026,
    "tAvgHot": 28.332734952481474
  },
  {
    "cityName": "San Jose, CS",
    "stationId": "GHCND:CSM00078762",
    "lat": 9.994,
    "lon": -84.209,
    "tMin": 17.863302752293556,
    "tAvgCold": 21.710867178924268,
    "tMax": 30.519507908611576,
    "tAvgHot": 23.840423031727415
  },
  {
    "cityName": "San Juan, AR",
    "stationId": "GHCND:ARM00087311",
    "lat": -31.571,
    "lon": -68.418,
    "tMin": -0.396958174904943,
    "tAvgCold": 8.36217345872519,
    "tMax": 36.314903846153854,
    "tAvgHot": 27.294240837696368
  },
  {
    "cityName": "San Luis, AR",
    "stationId": "GHCND:ARM00087436",
    "lat": -33.273,
    "lon": -66.356,
    "tMin": 3.427528089887642,
    "tAvgCold": 10.15482832618025,
    "tMax": 32.77211055276383,
    "tAvgHot": 24.931329113924036
  },
  {
    "cityName": "San Miguel De Tucuman, AR",
    "stationId": "GHCND:ARM00087121",
    "lat": -26.841,
    "lon": -65.105,
    "tMin": 6.423076923076923,
    "tAvgCold": 12.569696969696984,
    "tMax": 32.97771260997067,
    "tAvgHot": 25.35322916666665
  },
  {
    "cityName": "San Salvador, ES",
    "stationId": "GHCND:ES003800510",
    "lat": 13.7,
    "lon": -89.117,
    "tMin": 18.57058823529412,
    "tAvgCold": 24.430625832223694,
    "tMax": 33.02284122562675,
    "tAvgHot": 26.444665718349967
  },
  {
    "cityName": "Santa Cruz de La Sierra, BL",
    "stationId": "GHCND:BLM00085244",
    "lat": -17.645,
    "lon": -63.135,
    "tMin": 14.84662698412698,
    "tAvgCold": 19.65318704284218,
    "tMax": 32.6738666666667,
    "tAvgHot": 25.743412526997854
  },
  {
    "cityName": "Santa Marta, CO",
    "stationId": "GHCND:COM00080009",
    "lat": 11.12,
    "lon": -74.231,
    "tMin": 22.307312614259608,
    "tAvgCold": 28.597659297789345,
    "tMax": 33.77104377104375,
    "tAvgHot": 29.95290780141848
  },
  {
    "cityName": "Santa Rosa, AR",
    "stationId": "GHCND:AR000087623",
    "lat": -36.567,
    "lon": -64.266,
    "tMin": 1.607547169811319,
    "tAvgCold": 7.68520084566596,
    "tMax": 31.385245901639376,
    "tAvgHot": 23.83653017241377
  },
  {
    "cityName": "Santarem, BR",
    "stationId": "GHCND:BR000254000",
    "lat": -2.433,
    "lon": -54.717,
    "tMin": 24.062837837837844,
    "tAvgCold": 26.691231732776636,
    "tMax": 33.31968503937008,
    "tAvgHot": 28.934374999999974
  },
  {
    "cityName": "Santiago Del Estero, AR",
    "stationId": "GHCND:AR000087129",
    "lat": -27.767,
    "lon": -64.3,
    "tMin": 4.654973262032082,
    "tAvgCold": 14.037355718782777,
    "tMax": 34.317576564580555,
    "tAvgHot": 27.24056902002107
  },
  {
    "cityName": "Santiago, CI",
    "stationId": "GHCND:CIM00085574",
    "lat": -33.393,
    "lon": -70.786,
    "tMin": 2.196165191740415,
    "tAvgCold": 8.03048907388137,
    "tMax": 30.83618290258451,
    "tAvgHot": 21.129687499999996
  },
  {
    "cityName": "Santo Domingo, DR",
    "stationId": "GHCND:DRM00078486",
    "lat": 18.433,
    "lon": -69.883,
    "tMin": 20.436106750392494,
    "tAvgCold": 24.59804177545689,
    "tMax": 32.58219395866456,
    "tAvgHot": 27.52695312500001
  },
  {
    "cityName": "Sarajevo, BK",
    "stationId": "GHCND:BKM00014654",
    "lat": 43.8678,
    "lon": 18.4228,
    "tMin": -2.9902185223725257,
    "tAvgCold": 0.4746963562753032,
    "tMax": 27.96784599375653,
    "tAvgHot": 21.397519083969488
  },
  {
    "cityName": "Sarh, CD",
    "stationId": "GHCND:CD000004750",
    "lat": 9.15,
    "lon": 18.38,
    "tMin": 21.770912951167716,
    "tAvgCold": 25.9783264746228,
    "tMax": 39.50000000000001,
    "tAvgHot": 32.61063174114024
  },
  {
    "cityName": "Schwerin, GM",
    "stationId": "GHCND:GM000003038",
    "lat": 53.6442,
    "lon": 11.3883,
    "tMin": -1.4606659729448497,
    "tAvgCold": 1.7032258064516124,
    "tMax": 23.12403746097815,
    "tAvgHot": 19.045161290322582
  },
  {
    "cityName": "Sekondi, GH",
    "stationId": "GHCND:GHM00065467",
    "lat": 4.896,
    "lon": -1.775,
    "tMin": 22.292499999999997,
    "tAvgCold": 25.082051282051292,
    "tMax": 31.8472868217054,
    "tAvgHot": 28.534673366834163
  },
  {
    "cityName": "Shanghai, CH",
    "stationId": "GHCND:CHM00058367",
    "lat": 31.167,
    "lon": 121.433,
    "tMin": 1.842137096774193,
    "tAvgCold": 4.939374999999996,
    "tMax": 32.512096774193544,
    "tAvgHot": 28.80915712799168
  },
  {
    "cityName": "Sharjah, AE",
    "stationId": "GHCND:AEM00041194",
    "lat": 25.255,
    "lon": 55.364,
    "tMin": 14.599847792998487,
    "tAvgCold": 19.40397074190178,
    "tMax": 41.59828641370866,
    "tAvgHot": 35.48876170655568
  },
  {
    "cityName": "Shenyang, CH",
    "stationId": "GHCND:CHM00054342",
    "lat": 41.733,
    "lon": 123.517,
    "tMin": -17.03509719222463,
    "tAvgCold": -11.456503642039557,
    "tMax": 29.043296703296672,
    "tAvgHot": 24.609166666666667
  },
  {
    "cityName": "Shijiazhuang, CH",
    "stationId": "GHCND:CHM00053698",
    "lat": 38.033,
    "lon": 114.417,
    "tMin": -5.510932475884241,
    "tAvgCold": -1.5571279916753373,
    "tMax": 32.34326018808776,
    "tAvgHot": 27.474583333333317
  },
  {
    "cityName": "Sittwe, BM",
    "stationId": "GHCND:BMM00048062",
    "lat": 20.133,
    "lon": 92.873,
    "tMin": 14.160536398467444,
    "tAvgCold": 22.459523809523805,
    "tMax": 32.49779179810728,
    "tAvgHot": 29.556282722513075
  },
  {
    "cityName": "Skikda, AG",
    "stationId": "GHCND:AGM00060355",
    "lat": 36.933,
    "lon": 6.95,
    "tMin": 8.865925925925925,
    "tAvgCold": 12.509704142011827,
    "tMax": 29.402959309494495,
    "tAvgHot": 26.33224719101124
  },
  {
    "cityName": "Sofia, BU",
    "stationId": "GHCND:BUM00015614",
    "lat": 42.695,
    "lon": 23.406,
    "tMin": -4.31220472440945,
    "tAvgCold": -1.0165769644779312,
    "tMax": 27.582420091324206,
    "tAvgHot": 21.49634408602154
  },
  {
    "cityName": "Sonsonate, ES",
    "stationId": "GHCND:ES000078650",
    "lat": 13.567,
    "lon": -89.833,
    "tMin": 23.656118143459935,
    "tAvgCold": 28.296844181459587,
    "tMax": 33.914136904761946,
    "tAvgHot": 30.140641711229918
  },
  {
    "cityName": "Stuttgart, GM",
    "stationId": "GHCND:GME00115771",
    "lat": 48.8292,
    "lon": 9.2008,
    "tMin": -0.9817898022892813,
    "tAvgCold": 0.7782258064516125,
    "tMax": 24.67908428720087,
    "tAvgHot": 19.493333333333354
  },
  {
    "cityName": "Sucre, BL",
    "stationId": "GHCND:BLM00085283",
    "lat": -19.007,
    "lon": -65.289,
    "tMin": 4.014874551971325,
    "tAvgCold": 13.926560726447226,
    "tMax": 21.962170542635658,
    "tAvgHot": 17.14135166093931
  },
  {
    "cityName": "Sunyani, GH",
    "stationId": "GHCND:GHM00065439",
    "lat": 7.362,
    "lon": -2.329,
    "tMin": 21.070748299319728,
    "tAvgCold": 24.6888888888889,
    "tMax": 34.05384615384615,
    "tAvgHot": 28.2
  },
  {
    "cityName": "Suva, FJ",
    "stationId": "GHCND:FJM00091683",
    "lat": -18.043,
    "lon": 178.559,
    "tMin": 19.354029850746272,
    "tAvgCold": 22.771458333333346,
    "tMax": 31.303466666666655,
    "tAvgHot": 26.642514285714224
  },
  {
    "cityName": "Taiyuan, CH",
    "stationId": "GHCND:CHM00053772",
    "lat": 37.783,
    "lon": 112.55,
    "tMin": -10.600878155872651,
    "tAvgCold": -4.789698231009367,
    "tMax": 30.10705487122059,
    "tAvgHot": 24.13392299687824
  },
  {
    "cityName": "Tallinn, EN",
    "stationId": "GHCND:EN000026038",
    "lat": 59.3831,
    "lon": 24.5831,
    "tMin": -6.732359081419616,
    "tAvgCold": -4.291542857142859,
    "tMax": 22.389009497964715,
    "tAvgHot": 17.4926393270242
  },
  {
    "cityName": "Tamale, GH",
    "stationId": "GHCND:GHM00065418",
    "lat": 9.557,
    "lon": -0.863,
    "tMin": 22.670422535211255,
    "tAvgCold": 26.625714285714302,
    "tMax": 38.37777777777776,
    "tAvgHot": 32.41042944785272
  },
  {
    "cityName": "Tarija, BL",
    "stationId": "GHCND:BL000085364",
    "lat": -21.55,
    "lon": -64.7,
    "tMin": 2.404705882352939,
    "tAvgCold": 14.65712656784492,
    "tMax": 28.18414239482202,
    "tAvgHot": 22.037831603229503
  },
  {
    "cityName": "Temuco, CI",
    "stationId": "GHCND:CI000085743",
    "lat": -38.75,
    "lon": -72.633,
    "tMin": 3.3885222381635605,
    "tAvgCold": 7.168927789934357,
    "tMax": 26.059677419354834,
    "tAvgHot": 16.290624999999984
  },
  {
    "cityName": "Tianjin, CH",
    "stationId": "GHCND:CHM00054527",
    "lat": 39.1,
    "lon": 117.167,
    "tMin": -7.45429184549357,
    "tAvgCold": -3.295941727367323,
    "tMax": 31.3595411887383,
    "tAvgHot": 26.903333333333304
  },
  {
    "cityName": "Tirana, AL",
    "stationId": "GHCND:ALM00013615",
    "lat": 41.415,
    "lon": 19.721,
    "tMin": 2.1822335025380717,
    "tAvgCold": 7.196901408450706,
    "tMax": 32.71140684410646,
    "tAvgHot": 25.56519886363635
  },
  {
    "cityName": "Tlemcen, AG",
    "stationId": "GHCND:AGM00060531",
    "lat": 35.017,
    "lon": -1.45,
    "tMin": 5.234600760456283,
    "tAvgCold": 10.41631799163179,
    "tMax": 33.772418136020185,
    "tAvgHot": 26.49384133611695
  },
  {
    "cityName": "Toulouse, FR",
    "stationId": "GHCND:FR000007630",
    "lat": 43.6208,
    "lon": 1.3789,
    "tMin": 2.41945889698231,
    "tAvgCold": 5.6395833333333325,
    "tMax": 28.18335067637875,
    "tAvgHot": 22.165660770031213
  },
  {
    "cityName": "Trincomalee, CE",
    "stationId": "GHCND:CEM00043418",
    "lat": 8.539,
    "lon": 81.182,
    "tMin": 23.513131313131296,
    "tAvgCold": 26.004952830188664,
    "tMax": 35.268126520681264,
    "tAvgHot": 29.974013921113688
  },
  {
    "cityName": "Trinidad, BL",
    "stationId": "GHCND:BLM00085154",
    "lat": -14.819,
    "lon": -64.918,
    "tMin": 16.25827439886845,
    "tAvgCold": 23.532488986784145,
    "tMax": 33.37479541734859,
    "tAvgHot": 27.689712389380556
  },
  {
    "cityName": "Turku, FI",
    "stationId": "GHCND:FIE00141935",
    "lat": 60.3867,
    "lon": 22.5544,
    "tMin": -7.615296566076998,
    "tAvgCold": -5.237610619469026,
    "tMax": 22.30728407908428,
    "tAvgHot": 17.897177419354847
  },
  {
    "cityName": "Urumqi, CH",
    "stationId": "GHCND:CHM00051463",
    "lat": 43.8,
    "lon": 87.65,
    "tMin": -16.15863930885528,
    "tAvgCold": -12.286160249739854,
    "tMax": 29.91209766925637,
    "tAvgHot": 24.067812499999985
  },
  {
    "cityName": "Ushuaia, AR",
    "stationId": "GHCND:ARM00087938",
    "lat": -54.843,
    "lon": -68.296,
    "tMin": -0.9913752913752917,
    "tAvgCold": 1.9662820512820507,
    "tMax": 14.801392757660171,
    "tAvgHot": 9.913600000000004
  },
  {
    "cityName": "Valledupar, CO",
    "stationId": "GHCND:COM00080036",
    "lat": 10.435,
    "lon": -73.25,
    "tMin": 23.502380952380957,
    "tAvgCold": 28.706382978723415,
    "tMax": 36.766666666666666,
    "tAvgHot": 30.79830508474573
  },
  {
    "cityName": "Varna, BU",
    "stationId": "GHCND:BUM00015552",
    "lat": 43.232,
    "lon": 27.825,
    "tMin": -1.0630630630630626,
    "tAvgCold": 2.01291711517761,
    "tMax": 28.531788079470243,
    "tAvgHot": 22.920107526881697
  },
  {
    "cityName": "Vienna, AU",
    "stationId": "GHCND:AU000005901",
    "lat": 48.2331,
    "lon": 16.35,
    "tMin": -1.729565217391306,
    "tAvgCold": 0.6871848739495804,
    "tMax": 26.778310740354524,
    "tAvgHot": 21.01183932346723
  },
  {
    "cityName": "Villavicencio, CO",
    "stationId": "GHCND:COM00080234",
    "lat": 4.168,
    "lon": -73.614,
    "tMin": 20.281818181818185,
    "tAvgCold": 25.44414168937331,
    "tMax": 33.08571428571429,
    "tAvgHot": 28.297922848664687
  },
  {
    "cityName": "Vitsyebsk, BO",
    "stationId": "GHCND:BOM00026666",
    "lat": 55.167,
    "lon": 30.217,
    "tMin": -9.032193158953728,
    "tAvgCold": -5.453277835587932,
    "tMax": 23.99247787610621,
    "tAvgHot": 18.959729448491146
  },
  {
    "cityName": "Wa, GH",
    "stationId": "GHCND:GHM00065404",
    "lat": 10.083,
    "lon": -2.508,
    "tMin": 22.16102564102564,
    "tAvgCold": 25.982698961937707,
    "tMax": 37.875000000000014,
    "tAvgHot": 31.752868852459006
  },
  {
    "cityName": "Wuhan, CH",
    "stationId": "GHCND:CHM00057494",
    "lat": 30.6,
    "lon": 114.05,
    "tMin": 0.9837837837837814,
    "tAvgCold": 4.20187304890739,
    "tMax": 33.08076490438695,
    "tAvgHot": 29.22976066597294
  },
  {
    "cityName": "Xi'an, CH",
    "stationId": "GHCND:CHM00057036",
    "lat": 34.3,
    "lon": 108.933,
    "tMin": -3.2157258064516148,
    "tAvgCold": 0.09250780437044748,
    "tMax": 32.60013440860215,
    "tAvgHot": 27.130801248699264
  },
  {
    "cityName": "Xining, CH",
    "stationId": "GHCND:CHM00052866",
    "lat": 36.617,
    "lon": 101.767,
    "tMin": -14.21694915254238,
    "tAvgCold": -7.48272632674297,
    "tMax": 24.891328210757365,
    "tAvgHot": 17.310937499999984
  },
  {
    "cityName": "Yinchuan, CH",
    "stationId": "GHCND:CHM00053614",
    "lat": 38.467,
    "lon": 106.2,
    "tMin": -12.550746268656711,
    "tAvgCold": -6.981373569198755,
    "tMax": 30.169034406215324,
    "tAvgHot": 24.10729166666668
  },
  {
    "cityName": "Zhengzhou, CH",
    "stationId": "GHCND:CHM00057083",
    "lat": 34.717,
    "lon": 113.65,
    "tMin": -3.5448160535117044,
    "tAvgCold": 0.7104058272632668,
    "tMax": 32.036212624584735,
    "tAvgHot": 27.414568158168613
  },
  {
    "cityName": "Abidjan, IV",
    "stationId": "GHCND:IVM00065578",
    "lat": 5.261,
    "lon": -3.926,
    "tMin": 22.363047001620732,
    "tAvgCold": 24.55930232558138,
    "tMax": 32.33903903903903,
    "tAvgHot": 28.32516556291391
  },
  {
    "cityName": "Acapulco, MX",
    "stationId": "GHCND:MXM00076805",
    "lat": 16.833,
    "lon": -99.933,
    "tMin": 20.549503311258253,
    "tAvgCold": 26.500139664804422,
    "tMax": 34.07258805513017,
    "tAvgHot": 29.18979591836736
  },
  {
    "cityName": "Agartala, IN",
    "stationId": "GHCND:IN021010100",
    "lat": 23.883,
    "lon": 91.25,
    "tMin": 10.14505649717514,
    "tAvgCold": 17.389989235737342,
    "tMax": 32.47003792667508,
    "tAvgHot": 28.35595105672971
  },
  {
    "cityName": "Ahmadabad, IN",
    "stationId": "GHCND:IN005010600",
    "lat": 23.067,
    "lon": 72.633,
    "tMin": 12.135499207606964,
    "tAvgCold": 19.834696016771485,
    "tMax": 41.664721485411164,
    "tAvgHot": 33.73865546218483
  },
  {
    "cityName": "Ahvaz, IR",
    "stationId": "GHCND:IRM00040811",
    "lat": 31.337,
    "lon": 48.762,
    "tMin": 7.044252873563212,
    "tAvgCold": 12.503880983182409,
    "tMax": 46.85863746958637,
    "tAvgHot": 38.2947969543147
  },
  {
    "cityName": "Aktyubinsk, KZ",
    "stationId": "GHCND:KZ000035229",
    "lat": 50.2831,
    "lon": 57.15,
    "tMin": -16.41606905710491,
    "tAvgCold": -12.768054110301781,
    "tMax": 29.790033222591315,
    "tAvgHot": 22.6315296566077
  },
  {
    "cityName": "Al Basrah, IZ",
    "stationId": "GHCND:IRM00040831",
    "lat": 30.371,
    "lon": 48.228,
    "tMin": 7.258461538461533,
    "tAvgCold": 12.568428372739909,
    "tMax": 47.050735294117615,
    "tAvgHot": 37.60614152202938
  },
  {
    "cityName": "Al Mafraq, JO",
    "stationId": "GHCND:JOM00040265",
    "lat": 32.356,
    "lon": 36.259,
    "tMin": 2.0265306122448994,
    "tAvgCold": 7.668063420158562,
    "tMax": 33.88748043818468,
    "tAvgHot": 25.560216346153872
  },
  {
    "cityName": "Almaty, KZ",
    "stationId": "GHCND:KZ000036870",
    "lat": 43.2331,
    "lon": 76.9331,
    "tMin": -8.401517241379306,
    "tAvgCold": -5.5336108220603455,
    "tMax": 30.048621553884697,
    "tAvgHot": 23.969374999999975
  },
  {
    "cityName": "Ambon, ID",
    "stationId": "GHCND:ID000097724",
    "lat": -3.7,
    "lon": 128.083,
    "tMin": 22.62872340425533,
    "tAvgCold": 25.17439353099733,
    "tMax": 31.779846449136276,
    "tAvgHot": 27.47568306010929
  },
  {
    "cityName": "Amritsar, IN",
    "stationId": "GHCND:INM00042071",
    "lat": 31.71,
    "lon": 74.797,
    "tMin": 3.0692307692307716,
    "tAvgCold": 10.856187290969912,
    "tMax": 39.947727272727235,
    "tAvgHot": 32.22568697729985
  },
  {
    "cityName": "Antananarivo, MA",
    "stationId": "GHCND:MA000067083",
    "lat": -18.8,
    "lon": 47.483,
    "tMin": 9.35017793594307,
    "tAvgCold": 14.647141316073348,
    "tMax": 27.774900398406405,
    "tAvgHot": 21.327645051194544
  },
  {
    "cityName": "Antsiranana, MA",
    "stationId": "GHCND:MA000067009",
    "lat": -12.35,
    "lon": 49.3,
    "tMin": 19.347842170160302,
    "tAvgCold": 24.596547884187064,
    "tMax": 32.72121982210926,
    "tAvgHot": 27.76650943396229
  },
  {
    "cityName": "Aomori, JA",
    "stationId": "GHCND:JA000047575",
    "lat": 40.817,
    "lon": 140.767,
    "tMin": -4.407079646017705,
    "tAvgCold": -1.238229166666667,
    "tMax": 27.859500542888153,
    "tAvgHot": 23.400208116545322
  },
  {
    "cityName": "Arak, IR",
    "stationId": "GHCND:IRM00040769",
    "lat": 34.138,
    "lon": 49.847,
    "tMin": -6.543243243243247,
    "tAvgCold": -1.086381322957199,
    "tMax": 35.791684434968076,
    "tAvgHot": 28.010479797979755
  },
  {
    "cityName": "Arequipa, PE",
    "stationId": "GHCND:PE000084752",
    "lat": -16.332,
    "lon": -71.567,
    "tMin": 6.843289473684215,
    "tAvgCold": 13.770267379679149,
    "tMax": 22.252467105263168,
    "tAvgHot": 15.220915032679727
  },
  {
    "cityName": "Astana, KZ",
    "stationId": "GHCND:KZ000035188",
    "lat": 51.1331,
    "lon": 71.3667,
    "tMin": -17.893294460641407,
    "tAvgCold": -15.210926118626437,
    "tMax": 26.606096131301292,
    "tAvgHot": 20.43173777315296
  },
  {
    "cityName": "Asuncion, PA",
    "stationId": "GHCND:PAM00086218",
    "lat": -25.24,
    "lon": -57.519,
    "tMin": 12.462717219589269,
    "tAvgCold": 17.618834547346502,
    "tMax": 35.05893271461715,
    "tAvgHot": 27.951354166666686
  },
  {
    "cityName": "Atyrau, KZ",
    "stationId": "GHCND:KZ000035700",
    "lat": 47.1167,
    "lon": 51.9167,
    "tMin": -9.636483253588521,
    "tAvgCold": -6.741415192507795,
    "tMax": 33.23899895724714,
    "tAvgHot": 26.805937500000038
  },
  {
    "cityName": "Ayacucho, PE",
    "stationId": "GHCND:PEM00084673",
    "lat": -13.155,
    "lon": -74.204,
    "tMin": 6.370612244897966,
    "tAvgCold": 16.669034608378873,
    "tMax": 27.194736842105264,
    "tAvgHot": 20.41293706293704
  },
  {
    "cityName": "Az Zarqa', JO",
    "stationId": "GHCND:JOM00040265",
    "lat": 32.356,
    "lon": 36.259,
    "tMin": 2.0265306122448994,
    "tAvgCold": 7.668063420158562,
    "tMax": 33.88748043818468,
    "tAvgHot": 25.560216346153858
  },
  {
    "cityName": "Balikpapan, ID",
    "stationId": "GHCND:IDM00096633",
    "lat": -1.268,
    "lon": 116.894,
    "tMin": 23.852020202020206,
    "tAvgCold": 27.10933503836318,
    "tMax": 31.201682242990636,
    "tAvgHot": 27.905966587112182
  },
  {
    "cityName": "Bamako, ML",
    "stationId": "GHCND:MLM00061291",
    "lat": 12.534,
    "lon": -7.95,
    "tMin": 17.47415730337079,
    "tAvgCold": 24.726187961985225,
    "tMax": 39.342455621301795,
    "tAvgHot": 32.47031419284939
  },
  {
    "cityName": "Banda Aceh, ID",
    "stationId": "GHCND:IDM00096011",
    "lat": 5.524,
    "lon": 95.42,
    "tMin": 22.355419847328264,
    "tAvgCold": 26.385503685503704,
    "tMax": 33.35812883435586,
    "tAvgHot": 28.187844611528824
  },
  {
    "cityName": "Bandjermasin, ID",
    "stationId": "GHCND:IDM00096685",
    "lat": -3.442,
    "lon": 114.763,
    "tMin": 23.55320088300224,
    "tAvgCold": 26.89717362045761,
    "tMax": 33.64479166666666,
    "tAvgHot": 27.941561712846365
  },
  {
    "cityName": "Bangalore, IN",
    "stationId": "GHCND:IN009010100",
    "lat": 12.967,
    "lon": 77.583,
    "tMin": 16.17836477987421,
    "tAvgCold": 20.846638655462144,
    "tMax": 34.11645714285719,
    "tAvgHot": 27.332866379310353
  },
  {
    "cityName": "Banska Bystrica, LO",
    "stationId": "GHCND:LOM00011903",
    "lat": 48.65,
    "lon": 19.15,
    "tMin": -6.57967599410898,
    "tAvgCold": -2.779375000000002,
    "tMax": 26.93018259935555,
    "tAvgHot": 19.704266389177914
  },
  {
    "cityName": "Beersheba, IS",
    "stationId": "GHCND:IS000051690",
    "lat": 31.25,
    "lon": 34.8164,
    "tMin": 6.927789473684213,
    "tAvgCold": 11.940837696335077,
    "tMax": 34.56149843912593,
    "tAvgHot": 26.524615384615377
  },
  {
    "cityName": "Beira, MZ",
    "stationId": "GHCND:MZ000067297",
    "lat": -19.8,
    "lon": 34.9,
    "tMin": 16.45329949238576,
    "tAvgCold": 21.10776699029128,
    "tMax": 31.571619047619045,
    "tAvgHot": 28.23328748280606
  },
  {
    "cityName": "Beirut, LE",
    "stationId": "GHCND:LEM00040101",
    "lat": 33.817,
    "lon": 35.85,
    "tMin": 2.1812236286919857,
    "tAvgCold": 6.665614617940201,
    "tMax": 34.01420560747664,
    "tAvgHot": 26.478224455611404
  },
  {
    "cityName": "Benghazi, LY",
    "stationId": "GHCND:LYE00147747",
    "lat": 32.08,
    "lon": 20.27,
    "tMin": 9.055275229357798,
    "tAvgCold": 12.870101925254815,
    "tMax": 31.630994152046803,
    "tAvgHot": 26.996274738067548
  },
  {
    "cityName": "Bengkulu, ID",
    "stationId": "GHCND:IDM00096253",
    "lat": -3.864,
    "lon": 102.339,
    "tMin": 22.845962732919276,
    "tAvgCold": 26.382637075718023,
    "tMax": 31.816871704745154,
    "tAvgHot": 27.39192708333337
  },
  {
    "cityName": "Bhopal, IN",
    "stationId": "GHCND:IN011351500",
    "lat": 23.283,
    "lon": 77.35,
    "tMin": 10.428516129032245,
    "tAvgCold": 17.647553191489376,
    "tMax": 41.013179190751444,
    "tAvgHot": 33.71404255319148
  },
  {
    "cityName": "Bhubaneshwar, IN",
    "stationId": "GHCND:IN017111200",
    "lat": 20.25,
    "lon": 85.833,
    "tMin": 15.30213567839198,
    "tAvgCold": 21.524264705882352,
    "tMax": 37.67437641723348,
    "tAvgHot": 31.15284810126583
  },
  {
    "cityName": "Bishkek, KG",
    "stationId": "GHCND:KG000038353",
    "lat": 42.83,
    "lon": 74.58,
    "tMin": -7.842443729903543,
    "tAvgCold": -2.6980769230769273,
    "tMax": 32.245504087193424,
    "tAvgHot": 25.255329341317367
  },
  {
    "cityName": "Blantyre, MI",
    "stationId": "GHCND:MI000067693",
    "lat": -15.683,
    "lon": 34.967,
    "tMin": 13.862841530054645,
    "tAvgCold": 19.883544303797457,
    "tMax": 31.466666666666676,
    "tAvgHot": 26.80000000000001
  },
  {
    "cityName": "Bondoukou, IV",
    "stationId": "GHCND:IVM00065545",
    "lat": 8.05,
    "lon": -2.783,
    "tMin": 21.2887737478411,
    "tAvgCold": 24.30314207650272,
    "tMax": 35.26160583941604,
    "tAvgHot": 28.840767386091116
  },
  {
    "cityName": "Bouake, IV",
    "stationId": "GHCND:IV000005555",
    "lat": 7.68,
    "lon": -5.03,
    "tMin": 20.885835694050982,
    "tAvgCold": 24.066515837104053,
    "tMax": 34.34180790960453,
    "tAvgHot": 28.591646778042936
  },
  {
    "cityName": "Cagliari, IT",
    "stationId": "GHCND:ITM00016546",
    "lat": 39.354,
    "lon": 8.972,
    "tMin": 4.660162601626014,
    "tAvgCold": 9.720556745182009,
    "tMax": 33.464761904761936,
    "tAvgHot": 27.07659574468083
  },
  {
    "cityName": "Cajamarca, PE",
    "stationId": "GHCND:PEM00084472",
    "lat": -7.139,
    "lon": -78.489,
    "tMin": 3.239908256880735,
    "tAvgCold": 14.882283464566937,
    "tMax": 22.38901098901098,
    "tAvgHot": 15.83252173913041
  },
  {
    "cityName": "Callao, PE",
    "stationId": "GHCND:PEM00084628",
    "lat": -12.022,
    "lon": -77.114,
    "tMin": 15.323397435897418,
    "tAvgCold": 16.6459375,
    "tMax": 27.90124740124742,
    "tAvgHot": 23.35750286368842
  },
  {
    "cityName": "Campeche, MX",
    "stationId": "GHCND:MXM00076695",
    "lat": 19.817,
    "lon": -90.5,
    "tMin": 17.08649999999999,
    "tAvgCold": 23.851908396946587,
    "tMax": 36.81977272727277,
    "tAvgHot": 29.330434782608712
  },
  {
    "cityName": "Campobasso, IT",
    "stationId": "GHCND:ITM00016252",
    "lat": 41.567,
    "lon": 14.65,
    "tMin": 1.8840958605664464,
    "tAvgCold": 4.261909758656871,
    "tMax": 27.895541401273928,
    "tAvgHot": 22.603878406708624
  },
  {
    "cityName": "Casablanca, MO",
    "stationId": "GHCND:MOM00060155",
    "lat": 33.557,
    "lon": -7.66,
    "tMin": 8.667563291139242,
    "tAvgCold": 12.904144527098822,
    "tMax": 26.5071878940732,
    "tAvgHot": 23.40433403805497
  },
  {
    "cityName": "Ch'unch'on, KS",
    "stationId": "GHCND:KSM00047101",
    "lat": 37.9,
    "lon": 127.733,
    "tMin": -11.028070175438598,
    "tAvgCold": -4.3634375,
    "tMax": 29.912184412733247,
    "tAvgHot": 24.741293013555815
  },
  {
    "cityName": "Ch'ungju, KS",
    "stationId": "GHCND:KSM00047133",
    "lat": 36.3,
    "lon": 127.4,
    "tMin": -6.961663286004057,
    "tAvgCold": -1.4646874999999997,
    "tMax": 30.255865272938447,
    "tAvgHot": 25.53072916666667
  },
  {
    "cityName": "Cheju, KS",
    "stationId": "GHCND:KSM00047184",
    "lat": 33.517,
    "lon": 126.533,
    "tMin": 2.8083844580777106,
    "tAvgCold": 5.884479166666673,
    "tMax": 29.898672566371676,
    "tAvgHot": 26.763086548488015
  },
  {
    "cityName": "Chennai, IN",
    "stationId": "GHCND:IN020040900",
    "lat": 13,
    "lon": 80.183,
    "tMin": 20.67859237536656,
    "tAvgCold": 24.830052356020893,
    "tMax": 38.41809851088199,
    "tAvgHot": 31.68866736621195
  },
  {
    "cityName": "Chetumal, MX",
    "stationId": "GHCND:MXM00076750",
    "lat": 18.505,
    "lon": -88.327,
    "tMin": 18.490962099125362,
    "tAvgCold": 24.509594882729235,
    "tMax": 34.39546742209628,
    "tAvgHot": 29.12872117400416
  },
  {
    "cityName": "Chiclayo, PE",
    "stationId": "GHCND:PEM00084452",
    "lat": -6.787,
    "lon": -79.828,
    "tMin": 16.12421203438396,
    "tAvgCold": 19.072990353697723,
    "tMax": 31.829694323144082,
    "tAvgHot": 25.45164835164835
  },
  {
    "cityName": "Chihuahua, MX",
    "stationId": "GHCND:MXM00076225",
    "lat": 28.633,
    "lon": -106.083,
    "tMin": 1.2746300211416484,
    "tAvgCold": 10.39353562005278,
    "tMax": 35.61902912621362,
    "tAvgHot": 27.939617834394912
  },
  {
    "cityName": "Chilpancingo De Los Bravo, MX",
    "stationId": "GHCND:MXM00076762",
    "lat": 17.55,
    "lon": -99.5,
    "tMin": 11.584642233856906,
    "tAvgCold": 20.38887399463809,
    "tMax": 32.804370629370595,
    "tAvgHot": 24.339866666666648
  },
  {
    "cityName": "Chimoio, MZ",
    "stationId": "GHCND:MZ000067295",
    "lat": -19.117,
    "lon": 33.467,
    "tMin": 11.654203539823014,
    "tAvgCold": 17.927789046653132,
    "tMax": 29.50769230769231,
    "tAvgHot": 24.670286885245886
  },
  {
    "cityName": "Chisinau, MD",
    "stationId": "GHCND:MD000033815",
    "lat": 47.02,
    "lon": 28.87,
    "tMin": -4.622961956521737,
    "tAvgCold": -1.9951322751322769,
    "tMax": 28.080042918454957,
    "tAvgHot": 22.619479166666654
  },
  {
    "cityName": "Christchurch, NZ",
    "stationId": "GHCND:NZM00093781",
    "lat": -43.489,
    "lon": 172.532,
    "tMin": -0.30633484162895935,
    "tAvgCold": 5.8244004171011445,
    "tMax": 23.547090909090915,
    "tAvgHot": 16.591431556948784
  },
  {
    "cityName": "Ciudad Victoria, MX",
    "stationId": "GHCND:MX000028116",
    "lat": 23.733,
    "lon": -99.133,
    "tMin": 10.196485623003191,
    "tAvgCold": 16.334986945169707,
    "tMax": 36.71621271076525,
    "tAvgHot": 29.174404015056457
  },
  {
    "cityName": "Colima, MX",
    "stationId": "GHCND:MXM00076658",
    "lat": 19.277,
    "lon": -103.577,
    "tMin": 15.964772727272715,
    "tAvgCold": 21.55270805812416,
    "tMax": 35.5813513513513,
    "tAvgHot": 25.149939686369088
  },
  {
    "cityName": "Conakry, GV",
    "stationId": "GHCND:GV000001832",
    "lat": 9.57,
    "lon": -13.62,
    "tMin": 23.2675,
    "tAvgCold": 25.858074534161506,
    "tMax": 31.908644859813084,
    "tAvgHot": 28.52326869806098
  },
  {
    "cityName": "Cuernavaca, MX",
    "stationId": "GHCND:MX000017004",
    "lat": 18.883,
    "lon": -99.233,
    "tMin": 11.364492753623173,
    "tAvgCold": 21.498726114649706,
    "tMax": 33.37061068702289,
    "tAvgHot": 26.84373401534526
  },
  {
    "cityName": "Cuzco, PE",
    "stationId": "GHCND:PEM00084686",
    "lat": -13.536,
    "lon": -71.939,
    "tMin": 0.7986522911051201,
    "tAvgCold": 9.971220020855057,
    "tMax": 22.145523809523823,
    "tAvgHot": 13.644805194805198
  },
  {
    "cityName": "Daloa, IV",
    "stationId": "GHCND:IVM00065560",
    "lat": 6.793,
    "lon": -6.473,
    "tMin": 21.207859531772552,
    "tAvgCold": 24.650647668393795,
    "tMax": 35.021500000000024,
    "tAvgHot": 27.794436519258195
  },
  {
    "cityName": "Delhi, IN",
    "stationId": "GHCND:IN022021900",
    "lat": 28.583,
    "lon": 77.2,
    "tMin": 7.304492939666237,
    "tAvgCold": 13.341361256544499,
    "tMax": 38.980659840728016,
    "tAvgHot": 33.130685527747545
  },
  {
    "cityName": "Denpasar, ID",
    "stationId": "GHCND:IDM00097230",
    "lat": -8.749,
    "lon": 115.167,
    "tMin": 23.39953703703704,
    "tAvgCold": 26.32948430493271,
    "tMax": 31.67469635627531,
    "tAvgHot": 28.19458525345623
  },
  {
    "cityName": "Dimbokro, IV",
    "stationId": "GHCND:IV000005562",
    "lat": 6.65,
    "lon": -4.7,
    "tMin": 21.96303999999998,
    "tAvgCold": 26.045265888456548,
    "tMax": 36.64035369774917,
    "tAvgHot": 29.35843293492697
  },
  {
    "cityName": "Dzhambul, KZ",
    "stationId": "GHCND:KZ000038341",
    "lat": 42.85,
    "lon": 71.383,
    "tMin": -8.489001692047383,
    "tAvgCold": -3.1842767295597514,
    "tMax": 32.80658873538786,
    "tAvgHot": 25.37109947643977
  },
  {
    "cityName": "Encarnacion, PA",
    "stationId": "GHCND:ARM00087178",
    "lat": -27.386,
    "lon": -55.971,
    "tMin": 11.01923076923076,
    "tAvgCold": 16.176041666666638,
    "tMax": 34.12686567164178,
    "tAvgHot": 27.164921465968565
  },
  {
    "cityName": "Esfahan, IR",
    "stationId": "GHCND:IRM00040800",
    "lat": 32.751,
    "lon": 51.862,
    "tMin": -3.4881355932203384,
    "tAvgCold": 2.250539291217256,
    "tMax": 37.79455587392553,
    "tAvgHot": 29.845223880597008
  },
  {
    "cityName": "Fianarantsoa, MA",
    "stationId": "GHCND:MAM00067137",
    "lat": -21.442,
    "lon": 47.112,
    "tMin": 10.600307692307693,
    "tAvgCold": 14.964245810055862,
    "tMax": 27.544364161849753,
    "tAvgHot": 21.993094289508626
  },
  {
    "cityName": "Fort-De-France, MB",
    "stationId": "GHCND:MBM00078925",
    "lat": 14.591,
    "lon": -61.003,
    "tMin": 21.42081300813008,
    "tAvgCold": 25.027377892030852,
    "tMax": 31.121677215189848,
    "tAvgHot": 27.52051282051286
  },
  {
    "cityName": "Fukuoka, JA",
    "stationId": "GHCND:JA000047807",
    "lat": 33.583,
    "lon": 130.383,
    "tMin": 3.2859861591695525,
    "tAvgCold": 6.731041666666661,
    "tMax": 32.238865096359746,
    "tAvgHot": 28.115192507804384
  },
  {
    "cityName": "Gagnoa, IV",
    "stationId": "GHCND:IV000005557",
    "lat": 6.13,
    "lon": -5.95,
    "tMin": 21.503062787136315,
    "tAvgCold": 24.79254658385092,
    "tMax": 34.97934959349594,
    "tAvgHot": 27.6592
  },
  {
    "cityName": "Georgetown, GY",
    "stationId": "GHCND:GYM00081001",
    "lat": 6.8,
    "lon": -58.15,
    "tMin": 23.61949152542374,
    "tAvgCold": 27.512751677852354,
    "tMax": 31.96439393939392,
    "tAvgHot": 29.80884955752213
  },
  {
    "cityName": "Gifu, JA",
    "stationId": "GHCND:JA000047632",
    "lat": 35.4,
    "lon": 136.767,
    "tMin": 0.04938271604938283,
    "tAvgCold": 4.466935483870974,
    "tMax": 33.18906605922552,
    "tAvgHot": 28.10092105263156
  },
  {
    "cityName": "Guanajuato, MX",
    "stationId": "GHCND:MX000076577",
    "lat": 21,
    "lon": -101.283,
    "tMin": 6.543039999999997,
    "tAvgCold": 14.508680947012406,
    "tMax": 31.408734177215184,
    "tAvgHot": 22.280201342281856
  },
  {
    "cityName": "Haeju, KN",
    "stationId": "GHCND:KNM00047069",
    "lat": 38.033,
    "lon": 125.7,
    "tMin": -7.388115449915111,
    "tAvgCold": -3.1165437302423604,
    "tMax": 28.920138888888918,
    "tAvgHot": 24.986552828175032
  },
  {
    "cityName": "Hyderabad, IN",
    "stationId": "GHCND:IN001080500",
    "lat": 17.45,
    "lon": 78.47,
    "tMin": 14.961258741258746,
    "tAvgCold": 22.33389121338912,
    "tMax": 39.704744069912564,
    "tAvgHot": 33.059305993690856
  },
  {
    "cityName": "Hyesan, KN",
    "stationId": "GHCND:KNM00047016",
    "lat": 41.4,
    "lon": 128.167,
    "tMin": -23.861986301369875,
    "tAvgCold": -16.13608465608465,
    "tMax": 27.283922462941817,
    "tAvgHot": 20.79978678038377
  },
  {
    "cityName": "Ilorin, NI",
    "stationId": "GHCND:NIM00065101",
    "lat": 8.44,
    "lon": 4.494,
    "tMin": 21.604819277108433,
    "tAvgCold": 24.94113924050633,
    "tMax": 36.58602150537632,
    "tAvgHot": 30.69148936170214
  },
  {
    "cityName": "Imphal, IN",
    "stationId": "GHCND:IN013010200",
    "lat": 24.667,
    "lon": 93.9,
    "tMin": 4.877725118483411,
    "tAvgCold": 13.980065359477141,
    "tMax": 29.994567404426572,
    "tAvgHot": 25.66220183486241
  },
  {
    "cityName": "Inch`on, KS",
    "stationId": "GHCND:KSM00047108",
    "lat": 37.567,
    "lon": 126.967,
    "tMin": -6.433392539964478,
    "tAvgCold": -2.245416666666669,
    "tMax": 29.816666666666666,
    "tAvgHot": 25.740980187695524
  },
  {
    "cityName": "Inhambane, MZ",
    "stationId": "GHCND:MZ000067323",
    "lat": -23.867,
    "lon": 35.383,
    "tMin": 15.35198487712666,
    "tAvgCold": 21.69222903885483,
    "tMax": 31.497349397590362,
    "tAvgHot": 28.322916666666686
  },
  {
    "cityName": "Jaipur, IN",
    "stationId": "GHCND:IN019131301",
    "lat": 26.817,
    "lon": 75.8,
    "tMin": 7.817647058823536,
    "tAvgCold": 15.200940438871475,
    "tMax": 41.455138121546945,
    "tAvgHot": 33.89490986214211
  },
  {
    "cityName": "Jakarta, ID",
    "stationId": "GHCND:IDM00096749",
    "lat": -6.126,
    "lon": 106.656,
    "tMin": 23.50410022779044,
    "tAvgCold": 26.627260638297848,
    "tMax": 32.18811188811192,
    "tAvgHot": 27.856965174129364
  },
  {
    "cityName": "Jambi, ID",
    "stationId": "GHCND:IDM00096195",
    "lat": -1.638,
    "lon": 103.644,
    "tMin": 23.09366391184574,
    "tAvgCold": 26.677731958762884,
    "tMax": 32.43896848137534,
    "tAvgHot": 27.704294478527604
  },
  {
    "cityName": "Jayapura, ID",
    "stationId": "GHCND:IDM00097698",
    "lat": -2.367,
    "lon": 140.717,
    "tMin": 24.49873417721519,
    "tAvgCold": 28.39875,
    "tMax": 32.02168674698794,
    "tAvgHot": 28.955492957746475
  },
  {
    "cityName": "Johor Baharu, MY",
    "stationId": "GHCND:SNM00048698",
    "lat": 1.35,
    "lon": 103.994,
    "tMin": 23.965153970826584,
    "tAvgCold": 26.6643378519291,
    "tMax": 32.11256281407039,
    "tAvgHot": 28.494838709677396
  },
  {
    "cityName": "Jos, NI",
    "stationId": "GHCND:NIM00065134",
    "lat": 9.64,
    "lon": 8.869,
    "tMin": 16.616666666666664,
    "tAvgCold": 20.82972972972973,
    "tMax": 32.121428571428574,
    "tAvgHot": 26.746511627906987
  },
  {
    "cityName": "Juigalpa, NU",
    "stationId": "GHCND:NU000069034",
    "lat": 12.1,
    "lon": -85.367,
    "tMin": 21.969724770642216,
    "tAvgCold": 27.911212121212124,
    "tMax": 34.62584269662921,
    "tAvgHot": 31.068711656441696
  },
  {
    "cityName": "Kano, NI",
    "stationId": "GHCND:NIM00065046",
    "lat": 12.048,
    "lon": 8.525,
    "tMin": 12.553571428571429,
    "tAvgCold": 22.38037974683545,
    "tMax": 37.5,
    "tAvgHot": 32.149765258215965
  },
  {
    "cityName": "Karaganda, KZ",
    "stationId": "GHCND:KZ000035394",
    "lat": 49.8,
    "lon": 73.15,
    "tMin": -17.0508771929825,
    "tAvgCold": -13.902289281997913,
    "tMax": 26.68417431192653,
    "tAvgHot": 19.968990634755485
  },
  {
    "cityName": "Kathmandu, NP",
    "stationId": "GHCND:NP000444540",
    "lat": 27.7,
    "lon": 85.367,
    "tMin": 2.4093525179856092,
    "tAvgCold": 10.22546816479401,
    "tMax": 29.192888243831646,
    "tAvgHot": 24.28245125348189
  },
  {
    "cityName": "Kawasaki, JA",
    "stationId": "GHCND:JA000047662",
    "lat": 35.683,
    "lon": 139.767,
    "tMin": 2.1477537437603997,
    "tAvgCold": 6.094791666666667,
    "tMax": 31.35327604726098,
    "tAvgHot": 27.483558792924054
  },
  {
    "cityName": "Kayes, ML",
    "stationId": "GHCND:MLM00061257",
    "lat": 14.482,
    "lon": -11.44,
    "tMin": 17.58832391713748,
    "tAvgCold": 25.511468531468527,
    "tMax": 42.64440619621343,
    "tAvgHot": 36.12832861189799
  },
  {
    "cityName": "Kerman, IR",
    "stationId": "GHCND:IR000040841",
    "lat": 30.25,
    "lon": 56.967,
    "tMin": -3.0108048511576637,
    "tAvgCold": 4.894056847545227,
    "tMax": 36.19605122732128,
    "tAvgHot": 28.66645807259073
  },
  {
    "cityName": "Kermanshah, IR",
    "stationId": "GHCND:IR000407660",
    "lat": 34.267,
    "lon": 47.117,
    "tMin": -3.2834905660377323,
    "tAvgCold": 2.2067973856209178,
    "tMax": 38.532508073196986,
    "tAvgHot": 29.426675094816684
  },
  {
    "cityName": "Kindia, GV",
    "stationId": "GHCND:GV000001818",
    "lat": 10.05,
    "lon": -12.87,
    "tMin": 20.75666666666667,
    "tAvgCold": 24.093209876543202,
    "tMax": 35.651704545454535,
    "tAvgHot": 29.64310344827586
  },
  {
    "cityName": "Kingston, JM",
    "stationId": "GHCND:JMM00078397",
    "lat": 17.936,
    "lon": -76.788,
    "tMin": 22.142198100407064,
    "tAvgCold": 26.2896551724138,
    "tMax": 33.555394736842054,
    "tAvgHot": 29.176698014629032
  },
  {
    "cityName": "Kita Kyushu, JA",
    "stationId": "GHCND:JA000047807",
    "lat": 33.583,
    "lon": 130.383,
    "tMin": 3.2859861591695525,
    "tAvgCold": 6.731041666666662,
    "tMax": 32.23886509635975,
    "tAvgHot": 28.115192507804384
  },
  {
    "cityName": "Kobe, JA",
    "stationId": "GHCND:JA000047770",
    "lat": 34.7,
    "lon": 135.217,
    "tMin": 2.2299474605954455,
    "tAvgCold": 5.764038876889848,
    "tMax": 32.114922048997705,
    "tAvgHot": 28.214489571898977
  },
  {
    "cityName": "Kokshetau, KZ",
    "stationId": "GHCND:KZ000028879",
    "lat": 53.283,
    "lon": 69.383,
    "tMin": -19.552697841726612,
    "tAvgCold": -14.266418703506883,
    "tMax": 25.20513698630138,
    "tAvgHot": 19.724330357142833
  },
  {
    "cityName": "Kolkata, IN",
    "stationId": "GHCND:IN024141500",
    "lat": 22.65,
    "lon": 88.45,
    "tMin": 12.42708333333333,
    "tAvgCold": 18.631380753138053,
    "tMax": 35.90051679586566,
    "tAvgHot": 30.38275499474235
  },
  {
    "cityName": "Korhogo, IV",
    "stationId": "GHCND:IVM00065536",
    "lat": 9.387,
    "lon": -5.557,
    "tMin": 21.2432132963989,
    "tAvgCold": 25.094526315789466,
    "tMax": 36.438083538083546,
    "tAvgHot": 30.074451097804385
  },
  {
    "cityName": "Kosice, LO",
    "stationId": "GHCND:LOE00116344",
    "lat": 48.6667,
    "lon": 21.2167,
    "tMin": -4.952884615384613,
    "tAvgCold": -2.1787499999999986,
    "tMax": 26.39353493222108,
    "tAvgHot": 20.370416666666657
  },
  {
    "cityName": "Kostanay, KZ",
    "stationId": "GHCND:KZ000028952",
    "lat": 53.2167,
    "lon": 63.6167,
    "tMin": -19.421284634760728,
    "tAvgCold": -15.086458333333345,
    "tMax": 26.88408071748881,
    "tAvgHot": 20.698959417273663
  },
  {
    "cityName": "Kota Baharu, MY",
    "stationId": "GHCND:MYM00048615",
    "lat": 6.167,
    "lon": 102.293,
    "tMin": 23.139883268482482,
    "tAvgCold": 26.157366771159882,
    "tMax": 32.91067503924648,
    "tAvgHot": 28.300535331905746
  },
  {
    "cityName": "Kota Kinabalu, MY",
    "stationId": "GHCND:MYM00096471",
    "lat": 5.937,
    "lon": 116.051,
    "tMin": 23.172209567198188,
    "tAvgCold": 26.6783699059561,
    "tMax": 32.803159851301146,
    "tAvgHot": 28.145245559038692
  },
  {
    "cityName": "Kuantan New Port, MY",
    "stationId": "GHCND:MY000048657",
    "lat": 3.62,
    "lon": 103.22,
    "tMin": 22.41540656205419,
    "tAvgCold": 25.345397489539792,
    "tMax": 33.37301204819273,
    "tAvgHot": 27.742139037433144
  },
  {
    "cityName": "Kuching, MY",
    "stationId": "GHCND:MY000096413",
    "lat": 1.483,
    "lon": 110.333,
    "tMin": 23.03986394557824,
    "tAvgCold": 25.646242171190003,
    "tMax": 32.604654088050296,
    "tAvgHot": 27.03615464994771
  },
  {
    "cityName": "Kupang, ID",
    "stationId": "GHCND:ID000097372",
    "lat": -10.167,
    "lon": 123.667,
    "tMin": 21.334541062801915,
    "tAvgCold": 26.05694444444446,
    "tMax": 33.77181628392484,
    "tAvgHot": 28.413927576601647
  },
  {
    "cityName": "Kuwait, KU",
    "stationId": "GHCND:KU000405820",
    "lat": 29.222,
    "lon": 47.966,
    "tMin": 6.766126855600529,
    "tAvgCold": 12.982346609257272,
    "tMax": 46.35421903052066,
    "tAvgHot": 39.03942917547565
  },
  {
    "cityName": "Kyoto, JA",
    "stationId": "GHCND:JA000047649",
    "lat": 34.767,
    "lon": 136.15,
    "tMin": -1.5404715127701365,
    "tAvgCold": 3.3335135135135157,
    "tMax": 32.14842342342339,
    "tAvgHot": 26.534999999999997
  },
  {
    "cityName": "Kyzylorda, KZ",
    "stationId": "GHCND:KZ000038062",
    "lat": 44.85,
    "lon": 65.5,
    "tMin": -11.308433734939765,
    "tAvgCold": -7.2525600835945685,
    "tMax": 34.44624724061795,
    "tAvgHot": 27.67546972860123
  },
  {
    "cityName": "La Ceiba, HO",
    "stationId": "GHCND:HOM00078705",
    "lat": 15.742,
    "lon": -86.853,
    "tMin": 18.60692041522493,
    "tAvgCold": 23.696344086021487,
    "tMax": 32.163687150837994,
    "tAvgHot": 28.02754629629628
  },
  {
    "cityName": "La Paz, MX",
    "stationId": "GHCND:MX000003074",
    "lat": 24.167,
    "lon": -110.3,
    "tMin": 12.263102725366876,
    "tAvgCold": 19.249867374005323,
    "tMax": 37.93476331360948,
    "tAvgHot": 30.831116687578394
  },
  {
    "cityName": "Lagos, NI",
    "stationId": "GHCND:NIM00065201",
    "lat": 6.577,
    "lon": 3.321,
    "tMin": 23.105208333333348,
    "tAvgCold": 25.411032863849776,
    "tMax": 33.84699999999999,
    "tAvgHot": 29.153896103896102
  },
  {
    "cityName": "Larisa, GR",
    "stationId": "GHCND:GR000016648",
    "lat": 39.65,
    "lon": 22.45,
    "tMin": 0.5200255102040826,
    "tAvgCold": 5.020250521920668,
    "tMax": 33.65812807881782,
    "tAvgHot": 26.449374999999986
  },
  {
    "cityName": "Lichinga, MZ",
    "stationId": "GHCND:MZ000067217",
    "lat": -13.3,
    "lon": 35.233,
    "tMin": 9.83306930693069,
    "tAvgCold": 16.464695945945948,
    "tMax": 27.10158227848099,
    "tAvgHot": 22.66312499999999
  },
  {
    "cityName": "Lucknow, IN",
    "stationId": "GHCND:IN023351400",
    "lat": 26.75,
    "lon": 80.883,
    "tMin": 7.550325732899025,
    "tAvgCold": 14.206096256684472,
    "tMax": 39.17969543147208,
    "tAvgHot": 32.6011223344557
  },
  {
    "cityName": "Luxembourg, LU",
    "stationId": "GHCND:LU000006590",
    "lat": 49.6258,
    "lon": 6.2033,
    "tMin": -1.3587929240374614,
    "tAvgCold": 1.0426485922836293,
    "tMax": 23.33100936524453,
    "tAvgHot": 18.242039542143598
  },
  {
    "cityName": "Maastricht, NL",
    "stationId": "GHCND:NLM00006380",
    "lat": 50.9053,
    "lon": 5.7617,
    "tMin": 0.1273673257023933,
    "tAvgCold": 2.8807291666666663,
    "tMax": 23.36066597294484,
    "tAvgHot": 18.433194588969823
  },
  {
    "cityName": "Mahajanga, MA",
    "stationId": "GHCND:MAM00067027",
    "lat": -15.667,
    "lon": 46.352,
    "tMin": 18.27923186344238,
    "tAvgCold": 24.86486486486489,
    "tMax": 33.71518661518663,
    "tAvgHot": 28.283625730994128
  },
  {
    "cityName": "Makassar, ID",
    "stationId": "GHCND:IDM00097180",
    "lat": -5.062,
    "lon": 119.554,
    "tMin": 23.195305164319254,
    "tAvgCold": 26.378456221198157,
    "tMax": 34.013550600343045,
    "tAvgHot": 28.172716627634678
  },
  {
    "cityName": "Makurdi, NI",
    "stationId": "GHCND:NIM00065271",
    "lat": 7.704,
    "lon": 8.614,
    "tMin": 22.22666666666667,
    "tAvgCold": 26.788888888888884,
    "tMax": 37.31428571428571,
    "tAvgHot": 32.77000000000001
  },
  {
    "cityName": "Mamoutzou, MF",
    "stationId": "GHCND:MFM00067005",
    "lat": -12.805,
    "lon": 45.281,
    "tMin": 20.740857142857124,
    "tAvgCold": 25.084924078091113,
    "tMax": 30.935992578849728,
    "tAvgHot": 28.247759562841544
  },
  {
    "cityName": "Man, IV",
    "stationId": "GHCND:IV000005548",
    "lat": 7.38,
    "lon": -7.38,
    "tMin": 16.786865671641788,
    "tAvgCold": 23.903131991051453,
    "tMax": 33.52893258426968,
    "tAvgHot": 26.88239277652373
  },
  {
    "cityName": "Manado, ID",
    "stationId": "GHCND:ID000097014",
    "lat": 1.533,
    "lon": 124.917,
    "tMin": 22.439243498817973,
    "tAvgCold": 25.819868421052664,
    "tMax": 32.34657097288677,
    "tAvgHot": 26.950404624277432
  },
  {
    "cityName": "Managua, NU",
    "stationId": "GHCND:NUM00078741",
    "lat": 12.141,
    "lon": -86.168,
    "tMin": 20.023157894736855,
    "tAvgCold": 26.728832630098474,
    "tMax": 35.54861111111112,
    "tAvgHot": 29.715050651230115
  },
  {
    "cityName": "Mangalore, IN",
    "stationId": "GHCND:IN009130300",
    "lat": 12.917,
    "lon": 74.883,
    "tMin": 23.01098039215687,
    "tAvgCold": 25.671398078975486,
    "tMax": 34.37099514563106,
    "tAvgHot": 29.25586956521733
  },
  {
    "cityName": "Maputo, MZ",
    "stationId": "GHCND:MZM00067341",
    "lat": -25.921,
    "lon": 32.573,
    "tMin": 13.377186963979415,
    "tAvgCold": 19.575736961451238,
    "tMax": 31.187525562372226,
    "tAvgHot": 26.8834730538922
  },
  {
    "cityName": "Maradi, NG",
    "stationId": "GHCND:NG000001080",
    "lat": 13.47,
    "lon": 7.08,
    "tMin": 14.317326057298768,
    "tAvgCold": 22.628231292516997,
    "tMax": 39.98178243774573,
    "tAvgHot": 33.3322988505747
  },
  {
    "cityName": "Marrakech, MO",
    "stationId": "GHCND:MOM00060230",
    "lat": 31.607,
    "lon": -8.036,
    "tMin": 6.246258503401361,
    "tAvgCold": 11.983628779979146,
    "tMax": 37.61432432432435,
    "tAvgHot": 28.638189386056208
  },
  {
    "cityName": "Masaya, NU",
    "stationId": "GHCND:NUM00078741",
    "lat": 12.141,
    "lon": -86.168,
    "tMin": 20.023157894736855,
    "tAvgCold": 26.728832630098474,
    "tMax": 35.548611111111114,
    "tAvgHot": 29.71505065123011
  },
  {
    "cityName": "Mashhad, IR",
    "stationId": "GHCND:IR000040745",
    "lat": 36.267,
    "lon": 59.633,
    "tMin": -2.363932584269662,
    "tAvgCold": 2.314795918367348,
    "tMax": 34.89379679144382,
    "tAvgHot": 28.168394437421014
  },
  {
    "cityName": "Mataram, ID",
    "stationId": "GHCND:IDM00097240",
    "lat": -8.75,
    "lon": 116.267,
    "tMin": 20.794050343249435,
    "tAvgCold": 25.82930174563587,
    "tMax": 32.21669724770643,
    "tAvgHot": 27.7736711990111
  },
  {
    "cityName": "Mazatlan, MX",
    "stationId": "GHCND:MX000076458",
    "lat": 23.2,
    "lon": -106.417,
    "tMin": 13.943398876404487,
    "tAvgCold": 20.43167630057803,
    "tMax": 33.545042839657285,
    "tAvgHot": 29.280733944954143
  },
  {
    "cityName": "Medan, ID",
    "stationId": "GHCND:IDM00096035",
    "lat": 3.558,
    "lon": 98.672,
    "tMin": 23.209713375796195,
    "tAvgCold": 26.518543046357617,
    "tMax": 32.99859154929579,
    "tAvgHot": 27.88913043478258
  },
  {
    "cityName": "Meknes, MO",
    "stationId": "GHCND:MOM00060150",
    "lat": 33.879,
    "lon": -5.515,
    "tMin": 4.673905429071801,
    "tAvgCold": 9.913723150358003,
    "tMax": 33.81850340136058,
    "tAvgHot": 25.84484356894553
  },
  {
    "cityName": "Melaka, MY",
    "stationId": "GHCND:MYM00048665",
    "lat": 2.263,
    "lon": 102.252,
    "tMin": 23.48410351201476,
    "tAvgCold": 26.550521920668096,
    "tMax": 32.637155963302746,
    "tAvgHot": 27.98027718550111
  },
  {
    "cityName": "Merida, MX",
    "stationId": "GHCND:MX000076644",
    "lat": 20.983,
    "lon": -89.65,
    "tMin": 16.733270676691713,
    "tAvgCold": 23.333541666666655,
    "tMax": 37.60322108345541,
    "tAvgHot": 29.0294791666667
  },
  {
    "cityName": "Minna, NI",
    "stationId": "GHCND:NIM00065123",
    "lat": 9.617,
    "lon": 6.533,
    "tMin": 21.39692307692308,
    "tAvgCold": 26.011340206185558,
    "tMax": 39.2,
    "tAvgHot": 33.03513513513515
  },
  {
    "cityName": "Miskolc, HU",
    "stationId": "GHCND:HUM00012772",
    "lat": 48.083,
    "lon": 20.767,
    "tMin": -4.282423208191122,
    "tAvgCold": -1.5812499999999983,
    "tMax": 27.101508620689675,
    "tAvgHot": 21.158272632674272
  },
  {
    "cityName": "Misratah, LY",
    "stationId": "GHCND:LYE00147745",
    "lat": 32.4097,
    "lon": 15.05,
    "tMin": 9.885575364667748,
    "tAvgCold": 13.99632265717673,
    "tMax": 31.982222222222227,
    "tAvgHot": 27.690132370637816
  },
  {
    "cityName": "Mombasa, KE",
    "stationId": "GHCND:KE000063820",
    "lat": -4.033,
    "lon": 39.617,
    "tMin": 20.185983827493256,
    "tAvgCold": 24.06306010928966,
    "tMax": 32.89223880597013,
    "tAvgHot": 28.404216216216227
  },
  {
    "cityName": "Monrovia, LI",
    "stationId": "GHCND:LIM00065660",
    "lat": 6.234,
    "lon": -10.362,
    "tMin": 21.681249999999995,
    "tAvgCold": 24.993790149892916,
    "tMax": 33.538759689922486,
    "tAvgHot": 27.82594235033256
  },
  {
    "cityName": "Montego Bay, JM",
    "stationId": "GHCND:JM000078388",
    "lat": 18.5,
    "lon": -77.917,
    "tMin": 21.49891435464417,
    "tAvgCold": 25.60085015940494,
    "tMax": 33.363587684069635,
    "tAvgHot": 28.62301166489925
  },
  {
    "cityName": "Mopti, ML",
    "stationId": "GHCND:MLM00061265",
    "lat": 14.513,
    "lon": -4.08,
    "tMin": 16.261447562776947,
    "tAvgCold": 23.912895377128937,
    "tMax": 41.58584070796457,
    "tAvgHot": 34.725434243176196
  },
  {
    "cityName": "Morelia, MX",
    "stationId": "GHCND:MXM00076665",
    "lat": 19.7,
    "lon": -101.183,
    "tMin": 5.470419847328239,
    "tAvgCold": 15.68237822349571,
    "tMax": 31.801821192053023,
    "tAvgHot": 22.9744242424242
  },
  {
    "cityName": "Mumbai, IN",
    "stationId": "GHCND:IN012070800",
    "lat": 19.117,
    "lon": 72.85,
    "tMin": 16.73954423592497,
    "tAvgCold": 24.240229885057474,
    "tMax": 33.70825581395343,
    "tAvgHot": 30.024318658280926
  },
  {
    "cityName": "Muscat, MU",
    "stationId": "GHCND:MUM00041256",
    "lat": 23.593,
    "lon": 58.284,
    "tMin": 16.338269550748755,
    "tAvgCold": 20.94088729016789,
    "tMax": 39.67884012539185,
    "tAvgHot": 34.66864197530866
  },
  {
    "cityName": "Nagasaki, JA",
    "stationId": "GHCND:JA000047817",
    "lat": 32.732,
    "lon": 129.866,
    "tMin": 3.4372822299651564,
    "tAvgCold": 7.092187499999996,
    "tMax": 31.722529224229536,
    "tAvgHot": 27.914672216441218
  },
  {
    "cityName": "Nagoya, JA",
    "stationId": "GHCND:JA000047636",
    "lat": 35.167,
    "lon": 136.967,
    "tMin": 0.3537542662116044,
    "tAvgCold": 4.5834375000000085,
    "tMax": 32.986214209968146,
    "tAvgHot": 27.92018730489075
  },
  {
    "cityName": "Nagpur, IN",
    "stationId": "GHCND:IN012141800",
    "lat": 21.1,
    "lon": 79.05,
    "tMin": 12.676493506493523,
    "tAvgCold": 20.354096638655452,
    "tMax": 42.81136363636355,
    "tAvgHot": 35.39639065817411
  },
  {
    "cityName": "Naha, JA",
    "stationId": "GHCND:JA000047936",
    "lat": 26.2,
    "lon": 127.683,
    "tMin": 14.567643142476706,
    "tAvgCold": 17.02395833333334,
    "tMax": 31.909989484752856,
    "tAvgHot": 28.989073881373628
  },
  {
    "cityName": "Nairobi, KE",
    "stationId": "GHCND:KE000063740",
    "lat": -1.317,
    "lon": 36.917,
    "tMin": 11.13429003021149,
    "tAvgCold": 17.061514195583605,
    "tMax": 28.091689750692577,
    "tAvgHot": 20.86148867313918
  },
  {
    "cityName": "Nampula, MZ",
    "stationId": "GHCND:MZ000067237",
    "lat": -15.1,
    "lon": 39.283,
    "tMin": 16.194542536115538,
    "tAvgCold": 21.090206185567006,
    "tMax": 33.20158730158731,
    "tAvgHot": 27.551587301587297
  },
  {
    "cityName": "Naples, IT",
    "stationId": "GHCND:ITM00016253",
    "lat": 41.061,
    "lon": 14.082,
    "tMin": 2.9106896551724146,
    "tAvgCold": 7.781021087680358,
    "tMax": 31.54036697247706,
    "tAvgHot": 24.721528525295977
  },
  {
    "cityName": "New Delhi, IN",
    "stationId": "GHCND:IN022021900",
    "lat": 28.583,
    "lon": 77.2,
    "tMin": 7.304492939666236,
    "tAvgCold": 13.341361256544497,
    "tMax": 38.98065984072803,
    "tAvgHot": 33.13068552774755
  },
  {
    "cityName": "Niamey, NG",
    "stationId": "GHCND:NG000001052",
    "lat": 13.5,
    "lon": 2.13,
    "tMin": 17.074703557312265,
    "tAvgCold": 24.580423280423272,
    "tMax": 40.947964376590335,
    "tAvgHot": 34.600000000000016
  },
  {
    "cityName": "Nouadhibou, MR",
    "stationId": "GHCND:MR000061415",
    "lat": 20.933,
    "lon": -17.033,
    "tMin": 14.570750000000016,
    "tAvgCold": 18.965274725274714,
    "tMax": 31.72065404475041,
    "tAvgHot": 24.973684210526326
  },
  {
    "cityName": "Nouakchott, MR",
    "stationId": "GHCND:MR000001442",
    "lat": 18.12,
    "lon": -15.93,
    "tMin": 14.387096774193555,
    "tAvgCold": 21.395753715498945,
    "tMax": 35.26753445635526,
    "tAvgHot": 29.485635964912294
  },
  {
    "cityName": "Nzerekore, GV",
    "stationId": "GHCND:GVM00061849",
    "lat": 7.733,
    "lon": -8.833,
    "tMin": 20.683050847457626,
    "tAvgCold": 24.159701492537316,
    "tMax": 32.59370078740157,
    "tAvgHot": 27.381967213114766
  },
  {
    "cityName": "Oaxaca, MX",
    "stationId": "GHCND:MXM00076775",
    "lat": 17.05,
    "lon": -96.717,
    "tMin": 7.612464589235129,
    "tAvgCold": 18.11345381526104,
    "tMax": 33.65424528301888,
    "tAvgHot": 23.21438127090302
  },
  {
    "cityName": "Osaka, JA",
    "stationId": "GHCND:JA000047770",
    "lat": 34.7,
    "lon": 135.217,
    "tMin": 2.2299474605954446,
    "tAvgCold": 5.764038876889852,
    "tMax": 32.114922048997705,
    "tAvgHot": 28.214489571898994
  },
  {
    "cityName": "Osh, KG",
    "stationId": "GHCND:KG000038616",
    "lat": 40.6,
    "lon": 72.9,
    "tMin": -5.063852242744061,
    "tAvgCold": -1.2244741873804972,
    "tMax": 32.1690618762475,
    "tAvgHot": 25.466238532110093
  },
  {
    "cityName": "Oslo, NO",
    "stationId": "GHCND:NOM00001492",
    "lat": 59.9428,
    "lon": 10.7206,
    "tMin": -5.070655567117585,
    "tAvgCold": -2.426415094339619,
    "tMax": 22.409885535900074,
    "tAvgHot": 17.726870748299305
  },