[{"cityName":"Abidjan, IV","stationId":"GHCND:IVM00065578","lat":5.261,"lon":-3.926,"tMin":22.363047001620732,"tAvgCold":24.55930232558138,"tMax":32.33903903903903,"tAvgHot":28.32516556291391},{"cityName":"Acapulco, MX","stationId":"GHCND:MXM00076805","lat":16.833,"lon":-99.933,"tMin":20.549503311258253,"tAvgCold":26.500139664804422,"tMax":34.07258805513017,"tAvgHot":29.18979591836736},{"cityName":"Agartala, IN","stationId":"GHCND:IN021010100","lat":23.883,"lon":91.25,"tMin":10.14505649717514,"tAvgCold":17.389989235737342,"tMax":32.47003792667508,"tAvgHot":28.35595105672971},{"cityName":"Ahmadabad, IN","stationId":"GHCND:IN005010600","lat":23.067,"lon":72.633,"tMin":12.135499207606964,"tAvgCold":19.834696016771485,"tMax":41.664721485411164,"tAvgHot":33.73865546218483},{"cityName":"Ahvaz, IR","stationId":"GHCND:IRM00040811","lat":31.337,"lon":48.762,"tMin":7.044252873563212,"tAvgCold":12.503880983182409,"tMax":46.85863746958637,"tAvgHot":38.2947969543147},{"cityName":"Aktyubinsk, KZ","stationId":"GHCND:KZ000035229","lat":50.2831,"lon":57.15,"tMin":-16.41606905710491,"tAvgCold":-12.768054110301781,"tMax":29.790033222591315,"tAvgHot":22.6315296566077},{"cityName":"Al Basrah, IZ","stationId":"GHCND:IRM00040831","lat":30.371,"lon":48.228,"tMin":7.258461538461533,"tAvgCold":12.568428372739909,"tMax":47.050735294117615,"tAvgHot":37.60614152202938},{"cityName":"Al Mafraq, JO","stationId":"GHCND:JOM00040265","lat":32.356,"lon":36.259,"tMin":2.0265306122448994,"tAvgCold":7.668063420158562,"tMax":33.88748043818468,"tAvgHot":25.560216346153872},{"cityName":"Almaty, KZ","stationId":"GHCND:KZ000036870","lat":43.2331,"lon":76.9331,"tMin":-8.401517241379306,"tAvgCold":-5.5336108220603455,"tMax":30.048621553884697,"tAvgHot":23.969374999999975},{"cityName":"Ambon, ID","stationId":"GHCND:ID000097724","lat":-3.7,"lon":128.083,"tMin":22.62872340425533,"tAvgCold":25.17439353099733,"tMax":31.779846449136276,"tAvgHot":27.47568306010929},{"cityName":"Amritsar, IN","stationId":"GHCND:INM00042071","lat":31.71,"lon":74.797,"tMin":3.0692307692307716,"tAvgCold":10.856187290969912,"tMax":39.947727272727235,"tAvgHot":32.22568697729985},{"cityName":"Antananarivo, MA","stationId":"GHCND:MA000067083","lat":-18.8,"lon":47.483,"tMin":9.35017793594307,"tAvgCold":14.647141316073348,"tMax":27.774900398406405,"tAvgHot":21.327645051194544},{"cityName":"Antsiranana, MA","stationId":"GHCND:MA000067009","lat":-12.35,"lon":49.3,"tMin":19.347842170160302,"tAvgCold":24.596547884187064,"tMax":32.72121982210926,"tAvgHot":27.76650943396229},{"cityName":"Aomori, JA","stationId":"GHCND:JA000047575","lat":40.817,"lon":140.767,"tMin":-4.407079646017705,"tAvgCold":-1.238229166666667,"tMax":27.859500542888153,"tAvgHot":23.400208116545322},{"cityName":"Arak, IR","stationId":"GHCND:IRM00040769","lat":34.138,"lon":49.847,"tMin":-6.543243243243247,"tAvgCold":-1.086381322957199,"tMax":35.791684434968076,"tAvgHot":28.010479797979755},{"cityName":"Arequipa, PE","stationId":"GHCND:PE000084752","lat":-16.332,"lon":-71.567,"tMin":6.843289473684215,"tAvgCold":13.770267379679149,"tMax":22.252467105263168,"tAvgHot":15.220915032679727},{"cityName":"Astana, KZ","stationId":"GHCND:KZ000035188","lat":51.1331,"lon":71.3667,"tMin":-17.893294460641407,"tAvgCold":-15.210926118626437,"tMax":26.606096131301292,"tAvgHot":20.43173777315296},{"cityName":"Asuncion, PA","stationId":"GHCND:PAM00086218","lat":-25.24,"lon":-57.519,"tMin":12.462717219589269,"tAvgCold":17.618834547346502,"tMax":35.05893271461715,"tAvgHot":27.951354166666686},{"cityName":"Atyrau, KZ","stationId":"GHCND:KZ000035700","lat":47.1167,"lon":51.9167,"tMin":-9.636483253588521,"tAvgCold":-6.741415192507795,"tMax":33.23899895724714,"tAvgHot":26.805937500000038},{"cityName":"Ayacucho, PE","stationId":"GHCND:PEM00084673","lat":-13.155,"lon":-74.204,"tMin":6.370612244897966,"tAvgCold":16.669034608378873,"tMax":27.194736842105264,"tAvgHot":20.41293706293704},{"cityName":"Az Zarqa', JO","stationId":"GHCND:JOM00040265","lat":32.356,"lon":36.259,"tMin":2.0265306122448994,"tAvgCold":7.668063420158562,"tMax":33.88748043818468,"tAvgHot":25.560216346153858},{"cityName":"Balikpapan, ID","stationId":"GHCND:IDM00096633","lat":-1.268,"lon":116.894,"tMin":23.852020202020206,"tAvgCold":27.10933503836318,"tMax":31.201682242990636,"tAvgHot":27.905966587112182},{"cityName":"Bamako, ML","stationId":"GHCND:MLM00061291","lat":12.534,"lon":-7.95,"tMin":17.47415730337079,"tAvgCold":24.726187961985225,"tMax":39.342455621301795,"tAvgHot":32.47031419284939},{"cityName":"Banda Aceh, ID","stationId":"GHCND:IDM00096011","lat":5.524,"lon":95.42,"tMin":22.355419847328264,"tAvgCold":26.385503685503704,"tMax":33.35812883435586,"tAvgHot":28.187844611528824},{"cityName":"Bandjermasin, ID","stationId":"GHCND:IDM00096685","lat":-3.442,"lon":114.763,"tMin":23.55320088300224,"tAvgCold":26.89717362045761,"tMax":33.64479166666666,"tAvgHot":27.941561712846365},{"cityName":"Bangalore, IN","stationId":"GHCND:IN009010100","lat":12.967,"lon":77.583,"tMin":16.17836477987421,"tAvgCold":20.846638655462144,"tMax":34.11645714285719,"tAvgHot":27.332866379310353},{"cityName":"Banska Bystrica, LO","stationId":"GHCND:LOM00011903","lat":48.65,"lon":19.15,"tMin":-6.57967599410898,"tAvgCold":-2.779375000000002,"tMax":26.93018259935555,"tAvgHot":19.704266389177914},{"cityName":"Beersheba, IS","stationId":"GHCND:IS000051690","lat":31.25,"lon":34.8164,"tMin":6.927789473684213,"tAvgCold":11.940837696335077,"tMax":34.56149843912593,"tAvgHot":26.524615384615377},{"cityName":"Beira, MZ","stationId":"GHCND:MZ000067297","lat":-19.8,"lon":34.9,"tMin":16.45329949238576,"tAvgCold":21.10776699029128,"tMax":31.571619047619045,"tAvgHot":28.23328748280606},{"cityName":"Beirut, LE","stationId":"GHCND:LEM00040101","lat":33.817,"lon":35.85,"tMin":2.1812236286919857,"tAvgCold":6.665614617940201,"tMax":34.01420560747664,"tAvgHot":26.478224455611404},{"cityName":"Benghazi, LY","stationId":"GHCND:LYE00147747","lat":32.08,"lon":20.27,"tMin":9.055275229357798,"tAvgCold":12.870101925254815,"tMax":31.630994152046803,"tAvgHot":26.996274738067548},{"cityName":"Bengkulu, ID","stationId":"GHCND:IDM00096253","lat":-3.864,"lon":102.339,"tMin":22.845962732919276,"tAvgCold":26.382637075718023,"tMax":31.816871704745154,"tAvgHot":27.39192708333337},{"cityName":"Bhopal, IN","stationId":"GHCND:IN011351500","lat":23.283,"lon":77.35,"tMin":10.428516129032245,"tAvgCold":17.647553191489376,"tMax":41.013179190751444,"tAvgHot":33.71404255319148},{"cityName":"Bhubaneshwar, IN","stationId":"GHCND:IN017111200","lat":20.25,"lon":85.833,"tMin":15.30213567839198,"tAvgCold":21.524264705882352,"tMax":37.67437641723348,"tAvgHot":31.15284810126583},{"cityName":"Bishkek, KG","stationId":"GHCND:KG000038353","lat":42.83,"lon":74.58,"tMin":-7.842443729903543,"tAvgCold":-2.6980769230769273,"tMax":32.245504087193424,"tAvgHot":25.255329341317367},{"cityName":"Blantyre, MI","stationId":"GHCND:MI000067693","lat":-15.683,"lon":34.967,"tMin":13.862841530054645,"tAvgCold":19.883544303797457,"tMax":31.466666666666676,"tAvgHot":26.80000000000001},{"cityName":"Bondoukou, IV","stationId":"GHCND:IVM00065545","lat":8.05,"lon":-2.783,"tMin":21.2887737478411,"tAvgCold":24.30314207650272,"tMax":35.26160583941604,"tAvgHot":28.840767386091116},{"cityName":"Bouake, IV","stationId":"GHCND:IV000005555","lat":7.68,"lon":-5.03,"tMin":20.885835694050982,"tAvgCold":24.066515837104053,"tMax":34.34180790960453,"tAvgHot":28.591646778042936},{"cityName":"Cagliari, IT","stationId":"GHCND:ITM00016546","lat":39.354,"lon":8.972,"tMin":4.660162601626014,"tAvgCold":9.720556745182009,"tMax":33.464761904761936,"tAvgHot":27.07659574468083},{"cityName":"Cajamarca, PE","stationId":"GHCND:PEM00084472","lat":-7.139,"lon":-78.489,"tMin":3.239908256880735,"tAvgCold":14.882283464566937,"tMax":22.38901098901098,"tAvgHot":15.83252173913041},{"cityName":"Callao, PE","stationId":"GHCND:PEM00084628","lat":-12.022,"lon":-77.114,"tMin":15.323397435897418,"tAvgCold":16.6459375,"tMax":27.90124740124742,"tAvgHot":23.35750286368842},{"cityName":"Campeche, MX","stationId":"GHCND:MXM00076695","lat":19.817,"lon":-90.5,"tMin":17.08649999999999,"tAvgCold":23.851908396946587,"tMax":36.81977272727277,"tAvgHot":29.330434782608712},{"cityName":"Campobasso, IT","stationId":"GHCND:ITM00016252","lat":41.567,"lon":14.65,"tMin":1.8840958605664464,"tAvgCold":4.261909758656871,"tMax":27.895541401273928,"tAvgHot":22.603878406708624},{"cityName":"Casablanca, MO","stationId":"GHCND:MOM00060155","lat":33.557,"lon":-7.66,"tMin":8.667563291139242,"tAvgCold":12.904144527098822,"tMax":26.5071878940732,"tAvgHot":23.40433403805497},{"cityName":"Ch'unch'on, KS","stationId":"GHCND:KSM00047101","lat":37.9,"lon":127.733,"tMin":-11.028070175438598,"tAvgCold":-4.3634375,"tMax":29.912184412733247,"tAvgHot":24.741293013555815},{"cityName":"Ch'ungju, KS","stationId":"GHCND:KSM00047133","lat":36.3,"lon":127.4,"tMin":-6.961663286004057,"tAvgCold":-1.4646874999999997,"tMax":30.255865272938447,"tAvgHot":25.53072916666667},{"cityName":"Cheju, KS","stationId":"GHCND:KSM00047184","lat":33.517,"lon":126.533,"tMin":2.8083844580777106,"tAvgCold":5.884479166666673,"tMax":29.898672566371676,"tAvgHot":26.763086548488015},{"cityName":"Chennai, IN","stationId":"GHCND:IN020040900","lat":13,"lon":80.183,"tMin":20.67859237536656,"tAvgCold":24.830052356020893,"tMax":38.41809851088199,"tAvgHot":31.68866736621195},{"cityName":"Chetumal, MX","stationId":"GHCND:MXM00076750","lat":18.505,"lon":-88.327,"tMin":18.490962099125362,"tAvgCold":24.509594882729235,"tMax":34.39546742209628,"tAvgHot":29.12872117400416},{"cityName":"Chiclayo, PE","stationId":"GHCND:PEM00084452","lat":-6.787,"lon":-79.828,"tMin":16.12421203438396,"tAvgCold":19.072990353697723,"tMax":31.829694323144082,"tAvgHot":25.45164835164835},{"cityName":"Chihuahua, MX","stationId":"GHCND:MXM00076225","lat":28.633,"lon":-106.083,"tMin":1.2746300211416484,"tAvgCold":10.39353562005278,"tMax":35.61902912621362,"tAvgHot":27.939617834394912},{"cityName":"Chilpancingo De Los Bravo, MX","stationId":"GHCND:MXM00076762","lat":17.55,"lon":-99.5,"tMin":11.584642233856906,"tAvgCold":20.38887399463809,"tMax":32.804370629370595,"tAvgHot":24.339866666666648},{"cityName":"Chimoio, MZ","stationId":"GHCND:MZ000067295","lat":-19.117,"lon":33.467,"tMin":11.654203539823014,"tAvgCold":17.927789046653132,"tMax":29.50769230769231,"tAvgHot":24.670286885245886},{"cityName":"Chisinau, MD","stationId":"GHCND:MD000033815","lat":47.02,"lon":28.87,"tMin":-4.622961956521737,"tAvgCold":-1.9951322751322769,"tMax":28.080042918454957,"tAvgHot":22.619479166666654},{"cityName":"Christchurch, NZ","stationId":"GHCND:NZM00093781","lat":-43.489,"lon":172.532,"tMin":-0.30633484162895935,"tAvgCold":5.8244004171011445,"tMax":23.547090909090915,"tAvgHot":16.591431556948784},{"cityName":"Ciudad Victoria, MX","stationId":"GHCND:MX000028116","lat":23.733,"lon":-99.133,"tMin":10.196485623003191,"tAvgCold":16.334986945169707,"tMax":36.71621271076525,"tAvgHot":29.174404015056457},{"cityName":"Colima, MX","stationId":"GHCND:MXM00076658","lat":19.277,"lon":-103.577,"tMin":15.964772727272715,"tAvgCold":21.55270805812416,"tMax":35.5813513513513,"tAvgHot":25.149939686369088},{"cityName":"Conakry, GV","stationId":"GHCND:GV000001832","lat":9.57,"lon":-13.62,"tMin":23.2675,"tAvgCold":25.858074534161506,"tMax":31.908644859813084,"tAvgHot":28.52326869806098},{"cityName":"Cuernavaca, MX","stationId":"GHCND:MX000017004","lat":18.883,"lon":-99.233,"tMin":11.364492753623173,"tAvgCold":21.498726114649706,"tMax":33.37061068702289,"tAvgHot":26.84373401534526},{"cityName":"Cuzco, PE","stationId":"GHCND:PEM00084686","lat":-13.536,"lon":-71.939,"tMin":0.7986522911051201,"tAvgCold":9.971220020855057,"tMax":22.145523809523823,"tAvgHot":13.644805194805198},{"cityName":"Daloa, IV","stationId":"GHCND:IVM00065560","lat":6.793,"lon":-6.473,"tMin":21.207859531772552,"tAvgCold":24.650647668393795,"tMax":35.021500000000024,"tAvgHot":27.794436519258195},{"cityName":"Delhi, IN","stationId":"GHCND:IN022021900","lat":28.583,"lon":77.2,"tMin":7.304492939666237,"tAvgCold":13.341361256544499,"tMax":38.980659840728016,"tAvgHot":33.130685527747545},{"cityName":"Denpasar, ID","stationId":"GHCND:IDM00097230","lat":-8.749,"lon":115.167,"tMin":23.39953703703704,"tAvgCold":26.32948430493271,"tMax":31.67469635627531,"tAvgHot":28.19458525345623},{"cityName":"Dimbokro, IV","stationId":"GHCND:IV000005562","lat":6.65,"lon":-4.7,"tMin":21.96303999999998,"tAvgCold":26.045265888456548,"tMax":36.64035369774917,"tAvgHot":29.35843293492697},{"cityName":"Dzhambul, KZ","stationId":"GHCND:KZ000038341","lat":42.85,"lon":71.383,"tMin":-8.489001692047383,"tAvgCold":-3.1842767295597514,"tMax":32.80658873538786,"tAvgHot":25.37109947643977},{"cityName":"Encarnacion, PA","stationId":"GHCND:ARM00087178","lat":-27.386,"lon":-55.971,"tMin":11.01923076923076,"tAvgCold":16.176041666666638,"tMax":34.12686567164178,"tAvgHot":27.164921465968565},{"cityName":"Esfahan, IR","stationId":"GHCND:IRM00040800","lat":32.751,"lon":51.862,"tMin":-3.4881355932203384,"tAvgCold":2.250539291217256,"tMax":37.79455587392553,"tAvgHot":29.845223880597008},{"cityName":"Fianarantsoa, MA","stationId":"GHCND:MAM00067137","lat":-21.442,"lon":47.112,"tMin":10.600307692307693,"tAvgCold":14.964245810055862,"tMax":27.544364161849753,"tAvgHot":21.993094289508626},{"cityName":"Fort-De-France, MB","stationId":"GHCND:MBM00078925","lat":14.591,"lon":-61.003,"tMin":21.42081300813008,"tAvgCold":25.027377892030852,"tMax":31.121677215189848,"tAvgHot":27.52051282051286},{"cityName":"Fukuoka, JA","stationId":"GHCND:JA000047807","lat":33.583,"lon":130.383,"tMin":3.2859861591695525,"tAvgCold":6.731041666666661,"tMax":32.238865096359746,"tAvgHot":28.115192507804384},{"cityName":"Gagnoa, IV","stationId":"GHCND:IV000005557","lat":6.13,"lon":-5.95,"tMin":21.503062787136315,"tAvgCold":24.79254658385092,"tMax":34.97934959349594,"tAvgHot":27.6592},{"cityName":"Georgetown, GY","stationId":"GHCND:GYM00081001","lat":6.8,"lon":-58.15,"tMin":23.61949152542374,"tAvgCold":27.512751677852354,"tMax":31.96439393939392,"tAvgHot":29.80884955752213},{"cityName":"Gifu, JA","stationId":"GHCND:JA000047632","lat":35.4,"lon":136.767,"tMin":0.04938271604938283,"tAvgCold":4.466935483870974,"tMax":33.18906605922552,"tAvgHot":28.10092105263156},{"cityName":"Guanajuato, MX","stationId":"GHCND:MX000076577","lat":21,"lon":-101.283,"tMin":6.543039999999997,"tAvgCold":14.508680947012406,"tMax":31.408734177215184,"tAvgHot":22.280201342281856},{"cityName":"Haeju, KN","stationId":"GHCND:KNM00047069","lat":38.033,"lon":125.7,"tMin":-7.388115449915111,"tAvgCold":-3.1165437302423604,"tMax":28.920138888888918,"tAvgHot":24.986552828175032},{"cityName":"Hyderabad, IN","stationId":"GHCND:IN001080500","lat":17.45,"lon":78.47,"tMin":14.961258741258746,"tAvgCold":22.33389121338912,"tMax":39.704744069912564,"tAvgHot":33.059305993690856},{"cityName":"Hyesan, KN","stationId":"GHCND:KNM00047016","lat":41.4,"lon":128.167,"tMin":-23.861986301369875,"tAvgCold":-16.13608465608465,"tMax":27.283922462941817,"tAvgHot":20.79978678038377},{"cityName":"Ilorin, NI","stationId":"GHCND:NIM00065101","lat":8.44,"lon":4.494,"tMin":21.604819277108433,"tAvgCold":24.94113924050633,"tMax":36.58602150537632,"tAvgHot":30.69148936170214},{"cityName":"Imphal, IN","stationId":"GHCND:IN013010200","lat":24.667,"lon":93.9,"tMin":4.877725118483411,"tAvgCold":13.980065359477141,"tMax":29.994567404426572,"tAvgHot":25.66220183486241},{"cityName":"Inch`on, KS","stationId":"GHCND:KSM00047108","lat":37.567,"lon":126.967,"tMin":-6.433392539964478,"tAvgCold":-2.245416666666669,"tMax":29.816666666666666,"tAvgHot":25.740980187695524},{"cityName":"Inhambane, MZ","stationId":"GHCND:MZ000067323","lat":-23.867,"lon":35.383,"tMin":15.35198487712666,"tAvgCold":21.69222903885483,"tMax":31.497349397590362,"tAvgHot":28.322916666666686},{"cityName":"Jaipur, IN","stationId":"GHCND:IN019131301","lat":26.817,"lon":75.8,"tMin":7.817647058823536,"tAvgCold":15.200940438871475,"tMax":41.455138121546945,"tAvgHot":33.89490986214211},{"cityName":"Jakarta, ID","stationId":"GHCND:IDM00096749","lat":-6.126,"lon":106.656,"tMin":23.50410022779044,"tAvgCold":26.627260638297848,"tMax":32.18811188811192,"tAvgHot":27.856965174129364},{"cityName":"Jambi, ID","stationId":"GHCND:IDM00096195","lat":-1.638,"lon":103.644,"tMin":23.09366391184574,"tAvgCold":26.677731958762884,"tMax":32.43896848137534,"tAvgHot":27.704294478527604},{"cityName":"Jayapura, ID","stationId":"GHCND:IDM00097698","lat":-2.367,"lon":140.717,"tMin":24.49873417721519,"tAvgCold":28.39875,"tMax":32.02168674698794,"tAvgHot":28.955492957746475},{"cityName":"Johor Baharu, MY","stationId":"GHCND:SNM00048698","lat":1.35,"lon":103.994,"tMin":23.965153970826584,"tAvgCold":26.6643378519291,"tMax":32.11256281407039,"tAvgHot":28.494838709677396},{"cityName":"Jos, NI","stationId":"GHCND:NIM00065134","lat":9.64,"lon":8.869,"tMin":16.616666666666664,"tAvgCold":20.82972972972973,"tMax":32.121428571428574,"tAvgHot":26.746511627906987},{"cityName":"Juigalpa, NU","stationId":"GHCND:NU000069034","lat":12.1,"lon":-85.367,"tMin":21.969724770642216,"tAvgCold":27.911212121212124,"tMax":34.62584269662921,"tAvgHot":31.068711656441696},{"cityName":"Kano, NI","stationId":"GHCND:NIM00065046","lat":12.048,"lon":8.525,"tMin":12.553571428571429,"tAvgCold":22.38037974683545,"tMax":37.5,"tAvgHot":32.149765258215965},{"cityName":"Karaganda, KZ","stationId":"GHCND:KZ000035394","lat":49.8,"lon":73.15,"tMin":-17.0508771929825,"tAvgCold":-13.902289281997913,"tMax":26.68417431192653,"tAvgHot":19.968990634755485},{"cityName":"Kathmandu, NP","stationId":"GHCND:NP000444540","lat":27.7,"lon":85.367,"tMin":2.4093525179856092,"tAvgCold":10.22546816479401,"tMax":29.192888243831646,"tAvgHot":24.28245125348189},{"cityName":"Kawasaki, JA","stationId":"GHCND:JA000047662","lat":35.683,"lon":139.767,"tMin":2.1477537437603997,"tAvgCold":6.094791666666667,"tMax":31.35327604726098,"tAvgHot":27.483558792924054},{"cityName":"Kayes, ML","stationId":"GHCND:MLM00061257","lat":14.482,"lon":-11.44,"tMin":17.58832391713748,"tAvgCold":25.511468531468527,"tMax":42.64440619621343,"tAvgHot":36.12832861189799},{"cityName":"Kerman, IR","stationId":"GHCND:IR000040841","lat":30.25,"lon":56.967,"tMin":-3.0108048511576637,"tAvgCold":4.894056847545227,"tMax":36.19605122732128,"tAvgHot":28.66645807259073},{"cityName":"Kermanshah, IR","stationId":"GHCND:IR000407660","lat":34.267,"lon":47.117,"tMin":-3.2834905660377323,"tAvgCold":2.2067973856209178,"tMax":38.532508073196986,"tAvgHot":29.426675094816684},{"cityName":"Kindia, GV","stationId":"GHCND:GV000001818","lat":10.05,"lon":-12.87,"tMin":20.75666666666667,"tAvgCold":24.093209876543202,"tMax":35.651704545454535,"tAvgHot":29.64310344827586},{"cityName":"Kingston, JM","stationId":"GHCND:JMM00078397","lat":17.936,"lon":-76.788,"tMin":22.142198100407064,"tAvgCold":26.2896551724138,"tMax":33.555394736842054,"tAvgHot":29.176698014629032},{"cityName":"Kita Kyushu, JA","stationId":"GHCND:JA000047807","lat":33.583,"lon":130.383,"tMin":3.2859861591695525,"tAvgCold":6.731041666666662,"tMax":32.23886509635975,"tAvgHot":28.115192507804384},{"cityName":"Kobe, JA","stationId":"GHCND:JA000047770","lat":34.7,"lon":135.217,"tMin":2.2299474605954455,"tAvgCold":5.764038876889848,"tMax":32.114922048997705,"tAvgHot":28.214489571898977},{"cityName":"Kokshetau, KZ","stationId":"GHCND:KZ000028879","lat":53.283,"lon":69.383,"tMin":-19.552697841726612,"tAvgCold":-14.266418703506883,"tMax":25.20513698630138,"tAvgHot":19.724330357142833},{"cityName":"Kolkata, IN","stationId":"GHCND:IN024141500","lat":22.65,"lon":88.45,"tMin":12.42708333333333,"tAvgCold":18.631380753138053,"tMax":35.90051679586566,"tAvgHot":30.38275499474235},{"cityName":"Korhogo, IV","stationId":"GHCND:IVM00065536","lat":9.387,"lon":-5.557,"tMin":21.2432132963989,"tAvgCold":25.094526315789466,"tMax":36.438083538083546,"tAvgHot":30.074451097804385},{"cityName":"Kosice, LO","stationId":"GHCND:LOE00116344","lat":48.6667,"lon":21.2167,"tMin":-4.952884615384613,"tAvgCold":-2.1787499999999986,"tMax":26.39353493222108,"tAvgHot":20.370416666666657},{"cityName":"Kostanay, KZ","stationId":"GHCND:KZ000028952","lat":53.2167,"lon":63.6167,"tMin":-19.421284634760728,"tAvgCold":-15.086458333333345,"tMax":26.88408071748881,"tAvgHot":20.698959417273663},{"cityName":"Kota Baharu, MY","stationId":"GHCND:MYM00048615","lat":6.167,"lon":102.293,"tMin":23.139883268482482,"tAvgCold":26.157366771159882,"tMax":32.91067503924648,"tAvgHot":28.300535331905746},{"cityName":"Kota Kinabalu, MY","stationId":"GHCND:MYM00096471","lat":5.937,"lon":116.051,"tMin":23.172209567198188,"tAvgCold":26.6783699059561,"tMax":32.803159851301146,"tAvgHot":28.145245559038692},{"cityName":"Kuantan New Port, MY","stationId":"GHCND:MY000048657","lat":3.62,"lon":103.22,"tMin":22.41540656205419,"tAvgCold":25.345397489539792,"tMax":33.37301204819273,"tAvgHot":27.742139037433144},{"cityName":"Kuching, MY","stationId":"GHCND:MY000096413","lat":1.483,"lon":110.333,"tMin":23.03986394557824,"tAvgCold":25.646242171190003,"tMax":32.604654088050296,"tAvgHot":27.03615464994771},{"cityName":"Kupang, ID","stationId":"GHCND:ID000097372","lat":-10.167,"lon":123.667,"tMin":21.334541062801915,"tAvgCold":26.05694444444446,"tMax":33.77181628392484,"tAvgHot":28.413927576601647},{"cityName":"Kuwait, KU","stationId":"GHCND:KU000405820","lat":29.222,"lon":47.966,"tMin":6.766126855600529,"tAvgCold":12.982346609257272,"tMax":46.35421903052066,"tAvgHot":39.03942917547565},{"cityName":"Kyoto, JA","stationId":"GHCND:JA000047649","lat":34.767,"lon":136.15,"tMin":-1.5404715127701365,"tAvgCold":3.3335135135135157,"tMax":32.14842342342339,"tAvgHot":26.534999999999997},{"cityName":"Kyzylorda, KZ","stationId":"GHCND:KZ000038062","lat":44.85,"lon":65.5,"tMin":-11.308433734939765,"tAvgCold":-7.2525600835945685,"tMax":34.44624724061795,"tAvgHot":27.67546972860123},{"cityName":"La Ceiba, HO","stationId":"GHCND:HOM00078705","lat":15.742,"lon":-86.853,"tMin":18.60692041522493,"tAvgCold":23.696344086021487,"tMax":32.163687150837994,"tAvgHot":28.02754629629628},{"cityName":"La Paz, MX","stationId":"GHCND:MX000003074","lat":24.167,"lon":-110.3,"tMin":12.263102725366876,"tAvgCold":19.249867374005323,"tMax":37.93476331360948,"tAvgHot":30.831116687578394},{"cityName":"Lagos, NI","stationId":"GHCND:NIM00065201","lat":6.577,"lon":3.321,"tMin":23.105208333333348,"tAvgCold":25.411032863849776,"tMax":33.84699999999999,"tAvgHot":29.153896103896102},{"cityName":"Larisa, GR","stationId":"GHCND:GR000016648","lat":39.65,"lon":22.45,"tMin":0.5200255102040826,"tAvgCold":5.020250521920668,"tMax":33.65812807881782,"tAvgHot":26.449374999999986},{"cityName":"Lichinga, MZ","stationId":"GHCND:MZ000067217","lat":-13.3,"lon":35.233,"tMin":9.83306930693069,"tAvgCold":16.464695945945948,"tMax":27.10158227848099,"tAvgHot":22.66312499999999},{"cityName":"Lucknow, IN","stationId":"GHCND:IN023351400","lat":26.75,"lon":80.883,"tMin":7.550325732899025,"tAvgCold":14.206096256684472,"tMax":39.17969543147208,"tAvgHot":32.6011223344557},{"cityName":"Luxembourg, LU","stationId":"GHCND:LU000006590","lat":49.6258,"lon":6.2033,"tMin":-1.3587929240374614,"tAvgCold":1.0426485922836293,"tMax":23.33100936524453,"tAvgHot":18.242039542143598},{"cityName":"Maastricht, NL","stationId":"GHCND:NLM00006380","lat":50.9053,"lon":5.7617,"tMin":0.1273673257023933,"tAvgCold":2.8807291666666663,"tMax":23.36066597294484,"tAvgHot":18.433194588969823},{"cityName":"Mahajanga, MA","stationId":"GHCND:MAM00067027","lat":-15.667,"lon":46.352,"tMin":18.27923186344238,"tAvgCold":24.86486486486489,"tMax":33.71518661518663,"tAvgHot":28.283625730994128},{"cityName":"Makassar, ID","stationId":"GHCND:IDM00097180","lat":-5.062,"lon":119.554,"tMin":23.195305164319254,"tAvgCold":26.378456221198157,"tMax":34.013550600343045,"tAvgHot":28.172716627634678},{"cityName":"Makurdi, NI","stationId":"GHCND:NIM00065271","lat":7.704,"lon":8.614,"tMin":22.22666666666667,"tAvgCold":26.788888888888884,"tMax":37.31428571428571,"tAvgHot":32.77000000000001},{"cityName":"Mamoutzou, MF","stationId":"GHCND:MFM00067005","lat":-12.805,"lon":45.281,"tMin":20.740857142857124,"tAvgCold":25.084924078091113,"tMax":30.935992578849728,"tAvgHot":28.247759562841544},{"cityName":"Man, IV","stationId":"GHCND:IV000005548","lat":7.38,"lon":-7.38,"tMin":16.786865671641788,"tAvgCold":23.903131991051453,"tMax":33.52893258426968,"tAvgHot":26.88239277652373},{"cityName":"Manado, ID","stationId":"GHCND:ID000097014","lat":1.533,"lon":124.917,"tMin":22.439243498817973,"tAvgCold":25.819868421052664,"tMax":32.34657097288677,"tAvgHot":26.950404624277432},{"cityName":"Managua, NU","stationId":"GHCND:NUM00078741","lat":12.141,"lon":-86.168,"tMin":20.023157894736855,"tAvgCold":26.728832630098474,"tMax":35.54861111111112,"tAvgHot":29.715050651230115},{"cityName":"Mangalore, IN","stationId":"GHCND:IN009130300","lat":12.917,"lon":74.883,"tMin":23.01098039215687,"tAvgCold":25.671398078975486,"tMax":34.37099514563106,"tAvgHot":29.25586956521733},{"cityName":"Maputo, MZ","stationId":"GHCND:MZM00067341","lat":-25.921,"lon":32.573,"tMin":13.377186963979415,"tAvgCold":19.575736961451238,"tMax":31.187525562372226,"tAvgHot":26.8834730538922},{"cityName":"Maradi, NG","stationId":"GHCND:NG000001080","lat":13.47,"lon":7.08,"tMin":14.317326057298768,"tAvgCold":22.628231292516997,"tMax":39.98178243774573,"tAvgHot":33.3322988505747},{"cityName":"Marrakech, MO","stationId":"GHCND:MOM00060230","lat":31.607,"lon":-8.036,"tMin":6.246258503401361,"tAvgCold":11.983628779979146,"tMax":37.61432432432435,"tAvgHot":28.638189386056208},{"cityName":"Masaya, NU","stationId":"GHCND:NUM00078741","lat":12.141,"lon":-86.168,"tMin":20.023157894736855,"tAvgCold":26.728832630098474,"tMax":35.548611111111114,"tAvgHot":29.71505065123011},{"cityName":"Mashhad, IR","stationId":"GHCND:IR000040745","lat":36.267,"lon":59.633,"tMin":-2.363932584269662,"tAvgCold":2.314795918367348,"tMax":34.89379679144382,"tAvgHot":28.168394437421014},{"cityName":"Mataram, ID","stationId":"GHCND:IDM00097240","lat":-8.75,"lon":116.267,"tMin":20.794050343249435,"tAvgCold":25.82930174563587,"tMax":32.21669724770643,"tAvgHot":27.7736711990111},{"cityName":"Mazatlan, MX","stationId":"GHCND:MX000076458","lat":23.2,"lon":-106.417,"tMin":13.943398876404487,"tAvgCold":20.43167630057803,"tMax":33.545042839657285,"tAvgHot":29.280733944954143},{"cityName":"Medan, ID","stationId":"GHCND:IDM00096035","lat":3.558,"lon":98.672,"tMin":23.209713375796195,"tAvgCold":26.518543046357617,"tMax":32.99859154929579,"tAvgHot":27.88913043478258},{"cityName":"Meknes, MO","stationId":"GHCND:MOM00060150","lat":33.879,"lon":-5.515,"tMin":4.673905429071801,"tAvgCold":9.913723150358003,"tMax":33.81850340136058,"tAvgHot":25.84484356894553},{"cityName":"Melaka, MY","stationId":"GHCND:MYM00048665","lat":2.263,"lon":102.252,"tMin":23.48410351201476,"tAvgCold":26.550521920668096,"tMax":32.637155963302746,"tAvgHot":27.98027718550111},{"cityName":"Merida, MX","stationId":"GHCND:MX000076644","lat":20.983,"lon":-89.65,"tMin":16.733270676691713,"tAvgCold":23.333541666666655,"tMax":37.60322108345541,"tAvgHot":29.0294791666667},{"cityName":"Minna, NI","stationId":"GHCND:NIM00065123","lat":9.617,"lon":6.533,"tMin":21.39692307692308,"tAvgCold":26.011340206185558,"tMax":39.2,"tAvgHot":33.03513513513515},{"cityName":"Miskolc, HU","stationId":"GHCND:HUM00012772","lat":48.083,"lon":20.767,"tMin":-4.282423208191122,"tAvgCold":-1.5812499999999983,"tMax":27.101508620689675,"tAvgHot":21.158272632674272},{"cityName":"Misratah, LY","stationId":"GHCND:LYE00147745","lat":32.4097,"lon":15.05,"tMin":9.885575364667748,"tAvgCold":13.99632265717673,"tMax":31.982222222222227,"tAvgHot":27.690132370637816},{"cityName":"Mombasa, KE","stationId":"GHCND:KE000063820","lat":-4.033,"lon":39.617,"tMin":20.185983827493256,"tAvgCold":24.06306010928966,"tMax":32.89223880597013,"tAvgHot":28.404216216216227},{"cityName":"Monrovia, LI","stationId":"GHCND:LIM00065660","lat":6.234,"lon":-10.362,"tMin":21.681249999999995,"tAvgCold":24.993790149892916,"tMax":33.538759689922486,"tAvgHot":27.82594235033256},{"cityName":"Montego Bay, JM","stationId":"GHCND:JM000078388","lat":18.5,"lon":-77.917,"tMin":21.49891435464417,"tAvgCold":25.60085015940494,"tMax":33.363587684069635,"tAvgHot":28.62301166489925},{"cityName":"Mopti, ML","stationId":"GHCND:MLM00061265","lat":14.513,"lon":-4.08,"tMin":16.261447562776947,"tAvgCold":23.912895377128937,"tMax":41.58584070796457,"tAvgHot":34.725434243176196},{"cityName":"Morelia, MX","stationId":"GHCND:MXM00076665","lat":19.7,"lon":-101.183,"tMin":5.470419847328239,"tAvgCold":15.68237822349571,"tMax":31.801821192053023,"tAvgHot":22.9744242424242},{"cityName":"Mumbai, IN","stationId":"GHCND:IN012070800","lat":19.117,"lon":72.85,"tMin":16.73954423592497,"tAvgCold":24.240229885057474,"tMax":33.70825581395343,"tAvgHot":30.024318658280926},{"cityName":"Muscat, MU","stationId":"GHCND:MUM00041256","lat":23.593,"lon":58.284,"tMin":16.338269550748755,"tAvgCold":20.94088729016789,"tMax":39.67884012539185,"tAvgHot":34.66864197530866},{"cityName":"Nagasaki, JA","stationId":"GHCND:JA000047817","lat":32.732,"lon":129.866,"tMin":3.4372822299651564,"tAvgCold":7.092187499999996,"tMax":31.722529224229536,"tAvgHot":27.914672216441218},{"cityName":"Nagoya, JA","stationId":"GHCND:JA000047636","lat":35.167,"lon":136.967,"tMin":0.3537542662116044,"tAvgCold":4.5834375000000085,"tMax":32.986214209968146,"tAvgHot":27.92018730489075},{"cityName":"Nagpur, IN","stationId":"GHCND:IN012141800","lat":21.1,"lon":79.05,"tMin":12.676493506493523,"tAvgCold":20.354096638655452,"tMax":42.81136363636355,"tAvgHot":35.39639065817411},{"cityName":"Naha, JA","stationId":"GHCND:JA000047936","lat":26.2,"lon":127.683,"tMin":14.567643142476706,"tAvgCold":17.02395833333334,"tMax":31.909989484752856,"tAvgHot":28.989073881373628},{"cityName":"Nairobi, KE","stationId":"GHCND:KE000063740","lat":-1.317,"lon":36.917,"tMin":11.13429003021149,"tAvgCold":17.061514195583605,"tMax":28.091689750692577,"tAvgHot":20.86148867313918},{"cityName":"Nampula, MZ","stationId":"GHCND:MZ000067237","lat":-15.1,"lon":39.283,"tMin":16.194542536115538,"tAvgCold":21.090206185567006,"tMax":33.20158730158731,"tAvgHot":27.551587301587297},{"cityName":"Naples, IT","stationId":"GHCND:ITM00016253","lat":41.061,"lon":14.082,"tMin":2.9106896551724146,"tAvgCold":7.781021087680358,"tMax":31.54036697247706,"tAvgHot":24.721528525295977},{"cityName":"New Delhi, IN","stationId":"GHCND:IN022021900","lat":28.583,"lon":77.2,"tMin":7.304492939666236,"tAvgCold":13.341361256544497,"tMax":38.98065984072803,"tAvgHot":33.13068552774755},{"cityName":"Niamey, NG","stationId":"GHCND:NG000001052","lat":13.5,"lon":2.13,"tMin":17.074703557312265,"tAvgCold":24.580423280423272,"tMax":40.947964376590335,"tAvgHot":34.600000000000016},{"cityName":"Nouadhibou, MR","stationId":"GHCND:MR000061415","lat":20.933,"lon":-17.033,"tMin":14.570750000000016,"tAvgCold":18.965274725274714,"tMax":31.72065404475041,"tAvgHot":24.973684210526326},{"cityName":"Nouakchott, MR","stationId":"GHCND:MR000001442","lat":18.12,"lon":-15.93,"tMin":14.387096774193555,"tAvgCold":21.395753715498945,"tMax":35.26753445635526,"tAvgHot":29.485635964912294},{"cityName":"Nzerekore, GV","stationId":"GHCND:GVM00061849","lat":7.733,"lon":-8.833,"tMin":20.683050847457626,"tAvgCold":24.159701492537316,"tMax":32.59370078740157,"tAvgHot":27.381967213114766},{"cityName":"Oaxaca, MX","stationId":"GHCND:MXM00076775","lat":17.05,"lon":-96.717,"tMin":7.612464589235129,"tAvgCold":18.11345381526104,"tMax":33.65424528301888,"tAvgHot":23.21438127090302},{"cityName":"Osaka, JA","stationId":"GHCND:JA000047770","lat":34.7,"lon":135.217,"tMin":2.2299474605954446,"tAvgCold":5.764038876889852,"tMax":32.114922048997705,"tAvgHot":28.214489571898994},{"cityName":"Osh, KG","stationId":"GHCND:KG000038616","lat":40.6,"lon":72.9,"tMin":-5.063852242744061,"tAvgCold":-1.2244741873804972,"tMax":32.1690618762475,"tAvgHot":25.466238532110093},{"cityName":"Oslo, NO","stationId":"GHCND:NOM00001492","lat":59.9428,"lon":10.7206,"tMin":-5.070655567117585,"tAvgCold":-2.426415094339619,"tMax":22.409885535900074,"tAvgHot":17.726870748299305},{"cityName":"Oujda, MO","stationId":"GHCND:MOE00147755","lat":34.78,"lon":-1.93,"tMin":3.820650406504064,"tAvgCold":9.685079365079373,"tMax":34.6739130434783,"tAvgHot":26.25089005235603},{"cityName":"P'yongyang, KN","stationId":"GHCND:KNM00047058","lat":39.224,"lon":125.67,"tMin":-11.194830659536548,"tAvgCold":-5.72389473684211,"tMax":29.42485746864308,"tAvgHot":24.72087326943557},{"cityName":"Pachuca, MX","stationId":"GHCND:MXM00076632","lat":20.133,"lon":-98.75,"tMin":5.675409836065576,"tAvgCold":12.334920634920632,"tMax":24.56740506329114,"tAvgHot":17.547642679900743},{"cityName":"Padang, ID","stationId":"GHCND:ID000096163","lat":-0.883,"lon":100.35,"tMin":22.85000000000001,"tAvgCold":26.30364779874214,"tMax":31.543533123028393,"tAvgHot":27.35006180469715},{"cityName":"Palembang, ID","stationId":"GHCND:IDM00096221","lat":-2.898,"lon":104.701,"tMin":23.09858407079647,"tAvgCold":26.596839443742084,"tMax":32.689309210526304,"tAvgHot":27.973690932311623},{"cityName":"Palu, ID","stationId":"GHCND:IDM00097072","lat":-0.919,"lon":119.91,"tMin":22.762857142857168,"tAvgCold":27.025921521997606,"tMax":33.97970049916806,"tAvgHot":27.940799031476946},{"cityName":"Panaji, IN","stationId":"GHCND:IN022030600","lat":15.483,"lon":73.817,"tMin":20.094993742177742,"tAvgCold":25.55895287958116,"tMax":33.80273972602734,"tAvgHot":29.852118644067783},{"cityName":"Patna, IN","stationId":"GHCND:IN004102500","lat":25.6,"lon":85.1,"tMin":8.80351826792962,"tAvgCold":15.455343915343922,"tMax":37.753875968992325,"tAvgHot":31.99978471474704},{"cityName":"Pavlodar, KZ","stationId":"GHCND:KZ000036003","lat":52.3,"lon":76.933,"tMin":-21.49902343749999,"tAvgCold":-16.456948798328106,"tMax":28.039293598233964,"tAvgHot":21.41758584807491},{"cityName":"Pecs, HU","stationId":"GHCND:HU000012942","lat":46.0056,"lon":18.2328,"tMin":-2.526326742976064,"tAvgCold":0.20864583333333334,"tMax":27.711134235171706,"tAvgHot":21.95525494276791},{"cityName":"Pemba, MZ","stationId":"GHCND:MZ000067215","lat":-12.983,"lon":40.533,"tMin":18.557787810383747,"tAvgCold":23.916613924050647,"tMax":30.952508361204025,"tAvgHot":27.934202453987705},{"cityName":"Petropavlovsk, KZ","stationId":"GHCND:KZ000028676","lat":54.8331,"lon":69.15,"tMin":-20.361842105263122,"tAvgCold":-16.446354166666673,"tMax":25.083488372092997,"tAvgHot":19.703954214360042},{"cityName":"Pinang, MY","stationId":"GHCND:MYM00048601","lat":5.297,"lon":100.277,"tMin":24.012584269662874,"tAvgCold":26.986392405063285,"tMax":31.94858657243821,"tAvgHot":28.255010438413308},{"cityName":"Piraeus, GR","stationId":"GHCND:GR000016716","lat":37.9,"lon":23.75,"tMin":6.889659367396593,"tAvgCold":10.05206243032331,"tMax":32.978587962962976,"tAvgHot":28.219058553386944},{"cityName":"Pondicherry, IN","stationId":"GHCND:IN020020300","lat":11.767,"lon":79.767,"tMin":20.633830845771183,"tAvgCold":25.08532206969375,"tMax":37.1558685446009,"tAvgHot":31.10485744456176},{"cityName":"Pontianak, ID","stationId":"GHCND:IDM00096581","lat":-0.151,"lon":109.404,"tMin":22.977871621621638,"tAvgCold":26.608574879227042,"tMax":33.032764505119474,"tAvgHot":27.670595533498783},{"cityName":"Port Blair, IN","stationId":"GHCND:IN099999901","lat":11.667,"lon":92.717,"tMin":23.303287197231796,"tAvgCold":26.400394736842106,"tMax":32.62262443438908,"tAvgHot":28.59356643356642},{"cityName":"Port Harcourt, NI","stationId":"GHCND:NIM00065250","lat":5.015,"lon":6.95,"tMin":22.68035714285715,"tAvgCold":25.8060975609756,"tMax":34.28181818181818,"tAvgHot":29.319117647058825},{"cityName":"Port Louis, MP","stationId":"GHCND:MP000061995","lat":-20.3,"lon":57.5,"tMin":15.671140142517821,"tAvgCold":18.708360477741582,"tMax":27.85831099195709,"tAvgHot":24.542288557213958},{"cityName":"Puebla, MX","stationId":"GHCND:MX000029030","lat":19.32,"lon":-98.23,"tMin":3.2626995645863572,"tAvgCold":12.634299516908202,"tMax":28.003511235955045,"tAvgHot":18.38153846153847},{"cityName":"Pune, IN","stationId":"GHCND:IN012190100","lat":18.533,"lon":73.85,"tMin":11.422636815920404,"tAvgCold":19.93542553191489,"tMax":36.93344444444443,"tAvgHot":29.285458377239213},{"cityName":"Pusan, KS","stationId":"GHCND:KSM00047159","lat":35.1,"lon":129.033,"tMin":-1.1107861060329074,"tAvgCold":3.329583333333333,"tMax":29.520087336244547,"tAvgHot":25.937330552658988},{"cityName":"Quelimane, MZ","stationId":"GHCND:MZ000067283","lat":-17.883,"lon":36.883,"tMin":15.446804835923999,"tAvgCold":21.574412171507593,"tMax":33.41188524590165,"tAvgHot":28.506562499999944},{"cityName":"Queretaro, MX","stationId":"GHCND:MXM00076625","lat":20.617,"lon":-100.186,"tMin":6.599107142857142,"tAvgCold":14.151549295774648,"tMax":31.350000000000012,"tAvgHot":21.507879656160455},{"cityName":"Rabat, MO","stationId":"GHCND:MOM00060135","lat":34.051,"lon":-6.752,"tMin":7.095269168026102,"tAvgCold":11.901772679874872,"tMax":27.736104218362264,"tAvgHot":22.956562499999997},{"cityName":"Rasht, IR","stationId":"GHCND:IRM00040718","lat":37.467,"lon":49.467,"tMin":5.406338028169015,"tAvgCold":7.346153846153851,"tMax":29.442538975501087,"tAvgHot":26.434371108343736},{"cityName":"Riga, LG","stationId":"GHCND:LG000026422","lat":56.9625,"lon":24.04,"tMin":-6.63126022913257,"tAvgCold":-3.3015228426395957,"tMax":23.254326923076924,"tAvgHot":18.442906574394453},{"cityName":"Rome, IT","stationId":"GHCND:IT000162240","lat":42.0828,"lon":12.2167,"tMin":7.132887700534776,"tAvgCold":7.376760563380271,"tMax":29.59347116430915,"tAvgHot":24.667763157894736},{"cityName":"Saltillo, MX","stationId":"GHCND:MX000005048","lat":25.367,"lon":-101.017,"tMin":4.0214408233276115,"tAvgCold":12.891700680272118,"tMax":29.872789115646277,"tAvgHot":23.76295843520783},{"cityName":"Samarinda, ID","stationId":"GHCND:IDM00096607","lat":-0.485,"lon":117.157,"tMin":23.48996212121211,"tAvgCold":27.4583333333333,"tMax":32.578407079646,"tAvgHot":28.089267015706813},{"cityName":"San Luis Potosi, MX","stationId":"GHCND:MXM00076539","lat":22.254,"lon":-100.931,"tMin":3.0633187772925776,"tAvgCold":12.09040948275863,"tMax":31.12737430167598,"tAvgHot":20.641666666666673},{"cityName":"San Pedro Sula, HO","stationId":"GHCND:HOM00078708","lat":15.453,"lon":-87.924,"tMin":19.709894736842095,"tAvgCold":24.196493092454876,"tMax":35.40960698689959,"tAvgHot":28.867372881355944},{"cityName":"Sanandaj, IR","stationId":"GHCND:IRM00040747","lat":35.247,"lon":47.009,"tMin":-5.9923076923076986,"tAvgCold":0.3512022630834511,"tMax":37.78494897959186,"tAvgHot":28.37727272727273},{"cityName":"Sapporo, JA","stationId":"GHCND:JA000047412","lat":43.067,"lon":141.333,"tMin":-7.550174216027881,"tAvgCold":-3.569270833333332,"tMax":26.60609357997829,"tAvgHot":22.37086368366283},{"cityName":"Savannakhet, LA","stationId":"GHCND:TH000048383","lat":16.533,"lon":104.717,"tMin":16.940238450074496,"tAvgCold":22.525717321997895,"tMax":36.227323008849616,"tAvgHot":29.550807319698528},{"cityName":"Segou, ML","stationId":"GHCND:MLM00061272","lat":13.4,"lon":-6.15,"tMin":17.637651821862356,"tAvgCold":24.568721804511256,"tMax":40.98382066276803,"tAvgHot":33.66471518987342},{"cityName":"Semarang, ID","stationId":"GHCND:IDM00096839","lat":-6.973,"lon":110.375,"tMin":23.843470483005397,"tAvgCold":26.904501216544983,"tMax":33.817125382263015,"tAvgHot":28.590787878787868},{"cityName":"Semipalatinsk, KZ","stationId":"GHCND:KZ000036177","lat":50.4167,"lon":80.3,"tMin":-19.61586931155192,"tAvgCold":-14.671800208116542,"tMax":28.571532846715336,"tAvgHot":21.773541666666684},{"cityName":"Semnan, IR","stationId":"GHCND:IRM00040757","lat":35.591,"lon":53.495,"tMin":-1.1069536423841055,"tAvgCold":3.7418103448275857,"tMax":38.00175000000001,"tAvgHot":32.09124820659969},{"cityName":"Sendai, JA","stationId":"GHCND:JA000047590","lat":38.267,"lon":140.9,"tMin":-2.041275167785236,"tAvgCold":1.6735140771637151,"tMax":28.30341034103411,"tAvgHot":24.301040582726326},{"cityName":"Seoul, KS","stationId":"GHCND:KSM00047108","lat":37.567,"lon":126.967,"tMin":-6.433392539964478,"tAvgCold":-2.245416666666669,"tMax":29.81666666666667,"tAvgHot":25.740980187695524},{"cityName":"Shah Alam, MY","stationId":"GHCND:MYM00048647","lat":3.131,"lon":101.549,"tMin":23.679920477137152,"tAvgCold":26.907684098185733,"tMax":33.66130081300811,"tAvgHot":28.189979123173323},{"cityName":"Shahr-E Kord, IR","stationId":"GHCND:IRM00040798","lat":32.297,"lon":50.842,"tMin":-11.369827586206897,"tAvgCold":-2.2201550387596876,"tMax":33.68410958904109,"tAvgHot":24.515765765765774},{"cityName":"Shimonoseki, JA","stationId":"GHCND:JA000047762","lat":33.95,"lon":130.933,"tMin":4.327154471544712,"tAvgCold":6.957455683003135,"tMax":30.960816777041988,"tAvgHot":27.657051282051306},{"cityName":"Shiraz, IR","stationId":"GHCND:IR000040848","lat":29.533,"lon":52.533,"tMin":0.4009019165727171,"tAvgCold":6.101270648030503,"tMax":38.49598698481561,"tAvgHot":30.98580402010045},{"cityName":"Shymkent, KZ","stationId":"GHCND:KZ000038328","lat":42.317,"lon":69.7,"tMin":-5.624770642201835,"tAvgCold":-1.1854132901134513,"tMax":34.109219858156024,"tAvgHot":27.171028037383124},{"cityName":"Sikasso, ML","stationId":"GHCND:ML000061297","lat":11.35,"lon":-5.683,"tMin":21.916698656429965,"tAvgCold":25.4349431818182,"tMax":37.20272727272728,"tAvgHot":31.293823529411785},{"cityName":"Sinuiju, KN","stationId":"GHCND:CHM00054497","lat":40.05,"lon":124.333,"tMin":-11.228172043010769,"tAvgCold":-7.143080124869927,"tMax":27.98696132596686,"tAvgHot":23.62976066597288},{"cityName":"Spanish Town, JM","stationId":"GHCND:JMM00078397","lat":17.936,"lon":-76.788,"tMin":22.142198100407064,"tAvgCold":26.2896551724138,"tMax":33.555394736842054,"tAvgHot":29.17669801462903},{"cityName":"Stavanger, NO","stationId":"GHCND:NOE00109680","lat":58.8842,"lon":5.6367,"tMin":-0.6931428571428571,"tAvgCold":1.8795428571428576,"tMax":18.580645161290334,"tAvgHot":15.361602497398536},{"cityName":"Surabaja, ID","stationId":"GHCND:IDM00096935","lat":-7.38,"lon":112.787,"tMin":23.96492890995261,"tAvgCold":27.242893081761004,"tMax":33.77050610820242,"tAvgHot":28.981797752808987},{"cityName":"Tabriz, IR","stationId":"GHCND:IR000040706","lat":38.08,"lon":46.28,"tMin":-5.150984936268819,"tAvgCold":-1.2376111817026687,"tMax":33.24914529914531,"tAvgHot":26.410732323232295},{"cityName":"Taejon, KS","stationId":"GHCND:KSM00047133","lat":36.3,"lon":127.4,"tMin":-6.961663286004056,"tAvgCold":-1.4646874999999997,"tMax":30.255865272938443,"tAvgHot":25.530729166666664},{"cityName":"Tahoua, NG","stationId":"GHCND:NG000061043","lat":14.9,"lon":5.25,"tMin":16.116102841677943,"tAvgCold":23.762360801781732,"tMax":40.86675392670155,"tAvgHot":34.52288888888889},{"cityName":"Tampico, MX","stationId":"GHCND:MXM00076548","lat":22.2,"lon":-97.85,"tMin":15.639449541284414,"tAvgCold":19.0736698499318,"tMax":33.25297906602258,"tAvgHot":28.938530927835032},{"cityName":"Tanjungkarang-Telukbetung, ID","stationId":"GHCND:IDM00096295","lat":-5.242,"lon":105.179,"tMin":22.992621359223325,"tAvgCold":26.527814569536435,"tMax":33.35957446808509,"tAvgHot":27.6292652552926},{"cityName":"Tegucigalpa, HO","stationId":"GHCND:HO000078720","lat":14.05,"lon":-87.217,"tMin":13.391681735985536,"tAvgCold":19.972640509013754,"tMax":31.573068893528188,"tAvgHot":23.956967670011153},{"cityName":"Tehran, IR","stationId":"GHCND:IR000407540","lat":35.683,"lon":51.317,"tMin":0.5967821782178221,"tAvgCold":4.40613266583229,"tMax":37.06365384615389,"tAvgHot":31.243220338983072},{"cityName":"Tete, MZ","stationId":"GHCND:MZ000067261","lat":-16.183,"lon":33.583,"tMin":16.108413461538454,"tAvgCold":23.104308390022663,"tMax":36.42672064777326,"tAvgHot":30.723876404494373},{"cityName":"Tlaxcala, MX","stationId":"GHCND:MX000029030","lat":19.32,"lon":-98.23,"tMin":3.2626995645863577,"tAvgCold":12.6342995169082,"tMax":28.003511235955056,"tAvgHot":18.38153846153847},{"cityName":"Toamasina, MA","stationId":"GHCND:MA000067095","lat":-18.117,"lon":49.4,"tMin":16.977134986225888,"tAvgCold":21.03391684901532,"tMax":31.17590361445783,"tAvgHot":26.89076396807298},{"cityName":"Tokyo, JA","stationId":"GHCND:JA000047662","lat":35.683,"lon":139.767,"tMin":2.1477537437604,"tAvgCold":6.094791666666668,"tMax":31.353276047260984,"tAvgHot":27.483558792924054},{"cityName":"Toliara, MA","stationId":"GHCND:MA000067161","lat":-23.383,"lon":43.733,"tMin":14.577495107632098,"tAvgCold":21.715397923875457,"tMax":33.71709741550699,"tAvgHot":28.71194029850745},{"cityName":"Toluca, MX","stationId":"GHCND:MXM00076675","lat":19.283,"lon":-99.683,"tMin":-1.248443579766537,"tAvgCold":9.655718475073316,"tMax":24.27922077922077,"tAvgHot":15.310558069381576},{"cityName":"Trento, IT","stationId":"GHCND:IT000160220","lat":46.15,"lon":11.0331,"tMin":-5.58944591029024,"tAvgCold":-4.656128293241694,"tMax":15.821878453038693,"tAvgHot":11.294659685863873},{"cityName":"Tripoli, LE","stationId":"GHCND:LEM00040103","lat":34.45,"lon":35.8,"tMin":8.075342465753426,"tAvgCold":12.35091210613599,"tMax":31.794154488517734,"tAvgHot":28.059283387622145},{"cityName":"Trivandrum, IN","stationId":"GHCND:IN010100400","lat":8.483,"lon":76.95,"tMin":23.35302445302448,"tAvgCold":26.376427061310793,"tMax":33.544730679156956,"tAvgHot":28.802292576419227},{"cityName":"Tromso, NO","stationId":"GHCND:NO000001026","lat":69.6539,"lon":18.9281,"tMin":-5.4843912591051,"tAvgCold":-3.266997518610426,"tMax":16.092403746097816,"tAvgHot":12.56290322580645},{"cityName":"Turin, IT","stationId":"GHCND:ITM00016061","lat":45.033,"lon":7.733,"tMin":0.29819587628865946,"tAvgCold":2.817536534446762,"tMax":25.196895424836637,"tAvgHot":21.00624349635795},{"cityName":"Tuxtla Gutierrez, MX","stationId":"GHCND:MXM00076843","lat":16.77,"lon":-93.341,"tMin":15.016170212765969,"tAvgCold":20.605943691345175,"tMax":35.90985576923078,"tAvgHot":26.21770833333331},{"cityName":"Ulaanbaatar, MG","stationId":"GHCND:MGM00044292","lat":47.843,"lon":106.767,"tMin":-26.632996632996633,"tAvgCold":-23.12039748953974,"tMax":23.87645951035784,"tAvgHot":18.409158679446215},{"cityName":"Ural'sk, KZ","stationId":"GHCND:KZ000035108","lat":51.25,"lon":51.4,"tMin":-14.944847605224945,"tAvgCold":-11.049257142857133,"tMax":29.73106145251392,"tAvgHot":22.8092611862643},{"cityName":"Utrecht, NL","stationId":"GHCND:NLM00006260","lat":52.0989,"lon":5.1794,"tMin":0.4522372528616023,"tAvgCold":3.206458333333331,"tMax":22.77440166493237,"tAvgHot":17.95848074921957},{"cityName":"Varanasi, IN","stationId":"GHCND:IN023550300","lat":25.45,"lon":82.867,"tMin":null,"tAvgCold":null,"tMax":40.981,"tAvgHot":33.654397394136836},{"cityName":"Veracruz, MX","stationId":"GHCND:MXM00076692","lat":19.15,"lon":-96.117,"tMin":17.827469135802477,"tAvgCold":21.56741176470586,"tMax":32.15800653594768,"tAvgHot":28.258421672555926},{"cityName":"Vientiane, LA","stationId":"GHCND:LAM00048940","lat":17.988,"lon":102.563,"tMin":17.345431472081227,"tAvgCold":23.58100208768269,"tMax":34.77819548872183,"tAvgHot":29.870270270270268},{"cityName":"Villahermosa, MX","stationId":"GHCND:MXM00076743","lat":17.983,"lon":-92.933,"tMin":19.680669144981408,"tAvgCold":23.422061855670115,"tMax":35.770570570570555,"tAvgHot":29.63620071684587},{"cityName":"Vilnius, LH","stationId":"GHCND:LH000026730","lat":54.6331,"lon":25.1,"tMin":-6.362365591397849,"tAvgCold":-4.258333333333334,"tMax":23.458533916849024,"tAvgHot":18.221458333333334},{"cityName":"Willemstad, NT","stationId":"GHCND:NTM00078988","lat":12.189,"lon":-68.96,"tMin":24.051770657672837,"tAvgCold":26.68227320125129,"tMax":33.11384015594545,"tAvgHot":29.185868392664503},{"cityName":"Wonsan, KN","stationId":"GHCND:KNM00047055","lat":39.183,"lon":127.433,"tMin":-6.615724381625441,"tAvgCold":-2.087038988408852,"tMax":26.98325581395344,"tAvgHot":23.612473347547958},{"cityName":"Xai-Xai, MZ","stationId":"GHCND:MZ000067335","lat":-25.05,"lon":33.633,"tMin":12.999507389162549,"tAvgCold":19.586815920398035,"tMax":31.313071895424827,"tAvgHot":27.072425249169427},{"cityName":"Yamoussoukro, IV","stationId":"GHCND:IVM00065563","lat":6.903,"lon":-5.366,"tMin":20.57952898550724,"tAvgCold":25.16798307475316,"tMax":35.95299145299147,"tAvgHot":28.43999999999996},{"cityName":"Yazd, IR","stationId":"GHCND:IRM00040821","lat":31.905,"lon":54.277,"tMin":0.46323529411764697,"tAvgCold":6.1091906721536295,"tMax":40.217090069284076,"tAvgHot":33.487915006640094},{"cityName":"Yokohama, JA","stationId":"GHCND:JA000047662","lat":35.683,"lon":139.767,"tMin":2.1477537437604,"tAvgCold":6.094791666666667,"tMax":31.353276047260984,"tAvgHot":27.483558792924054},{"cityName":"Yola, NI","stationId":"GHCND:NIM00065167","lat":9.258,"lon":12.43,"tMin":22.399999999999995,"tAvgCold":27.014999999999997,"tMax":41.2375,"tAvgHot":34.815384615384616},{"cityName":"Zacatecas, MX","stationId":"GHCND:MXM00076525","lat":22.783,"lon":-102.567,"tMin":4.969117647058823,"tAvgCold":10.264274322169062,"tMax":22.82428571428571,"tAvgHot":17.667950693374436},{"cityName":"Zagreb, HR","stationId":"GHCND:HR000142360","lat":45.8167,"lon":15.9781,"tMin":-0.3736842105263158,"tAvgCold":2.557522123893808,"tMax":28.14807492195632,"tAvgHot":24.104118616144973},{"cityName":"Zahedan, IR","stationId":"GHCND:IR000408560","lat":29.476,"lon":60.907,"tMin":0.4751101321585903,"tAvgCold":7.480562659846552,"tMax":37.06265193370168,"tAvgHot":30.163566878980888},{"cityName":"Zahle, LE","stationId":"GHCND:LEM00040101","lat":33.817,"lon":35.85,"tMin":2.1812236286919857,"tAvgCold":6.665614617940201,"tMax":34.01420560747663,"tAvgHot":26.478224455611404},{"cityName":"Zanjan, IR","stationId":"GHCND:IRM00040729","lat":36.774,"lon":48.359,"tMin":-7.6172413793103395,"tAvgCold":-1.9297002724795649,"tMax":32.279236276849645,"tAvgHot":24.056933333333305},{"cityName":"Zhezkazgan, KZ","stationId":"GHCND:KZ000035671","lat":47.8,"lon":67.717,"tMin":-19.34268077601413,"tAvgCold":-13.330546623794218,"tMax":31.23172169811315,"tAvgHot":24.23074361820198},{"cityName":"Zinder, NG","stationId":"GHCND:NG000001090","lat":13.8,"lon":9,"tMin":15.124093264248708,"tAvgCold":22.946393972012874,"tMax":40.62574002574003,"tAvgHot":34.422406181015454}]